"establishment_id","establishment_name","establishmenttype","minimum_inspections_peryear","lat","lon","score"
"10185207","TIM HORTONS","Restaurant",2,43.832804,-79.2665806,100
"10185464","GLEN EDEN FRUIT MARKET","Food Store (Convenience / Variety)",1,43.7132211,-79.4281977,100
"10185511","GHAZELE","Food Take Out",3,43.6653152,-79.4103791,96
"10185522","WING LOON FOOD PRODUCT","Food Processing Plant",2,43.7538627,-79.290825,93
"10185527","CHRISTIE OSSINGTON NEIGHBOURHOOD CENTRE (MEN'S HOSTEL & HOUSING)","Community Kitchen Meal Program",3,43.6660034,-79.4461592,100
"10185533","TIM HORTONS","Food Take Out",2,43.6541983,-79.3393463,100
"10185562","EPICURE CAFE & GRILL","Restaurant",3,43.6478501,-79.4012819,85
"10185565","MAMMA'S PIZZA","Restaurant",2,43.6497924,-79.4825925,100
"10185572","MOT NA SON RESTAURANT","Restaurant",3,43.7745181,-79.4144777,100
"10185580","NGUYEN HUONG VIETNAMESE SANDWICHES","Food Take Out",2,43.8328306,-79.2658718,67
"10185696","SOLERO MEDITERRANEAN BAKERY","Bakery",3,43.665333,-79.4700625,100
"10185991","NORTH PARK SMOKE & GIFT","Food Store (Convenience / Variety)",1,43.7087429,-79.4777619,100
"10186064","HOME DINERS EXPRESS","Restaurant",2,43.7075431,-79.5621455,100
"10186202","ALPHABET KIDS","Food Caterer",3,43.7370084,-79.3232089,96
"10186209","SUBWAY SANDWICHES","Restaurant",2,43.6141866,-79.5590189,91
"10186365","CANADA HERB","Food Depot",1,43.6472353,-79.4199309,100
"10186385","INTERPACK MONEY","Food Store (Convenience / Variety)",1,43.6646585,-79.4130127,100
"10186467","BASKIN-ROBBINS ICE CREAM","Food Take Out",2,43.7743445,-79.2535219,100
"10186500","TREATS","Food Take Out",2,43.670313,-79.3864459,97
"10186502","NEW ORLEANS SEAFOOD & STEAKHOUSE","Restaurant",3,43.677733,-79.5062331,100
"10186546","TUNG HING BAKERY","Bakery",2,43.6651819,-79.3523762,97
"10186651","ZAM ZAM FOODS","Bakery",2,43.8105018,-79.2386645,100
"10186689","EXPRESS THAI CUISINE","Food Take Out",3,43.6982126,-79.4514691,99
"10186695","STARBUCKS COFFEE","Restaurant",1,43.665474,-79.4099274,100
"10186737","SHOPPERS DRUG MART","Food Store (Convenience / Variety)",1,43.7858095,-79.4168311,100
"10186738","SPICY PIZZA WINGS","Food Take Out",2,43.8131496,-79.2422076,93
"10186811","A LA CARTE KITCHEN","Food Caterer",3,43.7058191,-79.351374,100
"10186867","SUBWAY SANDWICHES AND SALADS","Food Take Out",2,43.7207271,-79.5099498,100
"10186892","STARFISH CARIBBEAN MARKET","Supermarket",2,43.698259,-79.511035,97
"10186895","ROWNTREE MEATS","Butcher Shop",2,43.7509389,-79.585675,100
"10186932","MR. SUB","Restaurant",2,43.6910464,-79.2892598,100
"10186971","THE CROOKED STAR","Restaurant",3,43.6487316,-79.4206982,100
"10187087","METROPOLIS BAKESHOP","Food Court Vendor",2,43.670356,-79.3870473,100
"10187182","LAURA SECORD","Food Take Out",2,43.7743445,-79.2535219,100
"10187202","THE NEW PEPPER CHILI","Restaurant",3,43.6653854,-79.3527466,100
"10187256","PHO BOLSA RESTAURANT","Restaurant",3,43.6963293,-79.4468406,100
"10187323","THE ORIENTAL GOURMET","Restaurant",3,43.822058,-79.298592,83
"10187331","BAMDAD SUPERMARKET LTD.","Food Store (Convenience / Variety)",1,43.7628243,-79.3454499,100
"10187408","SHERBOURNE VARIETY & GIFT","Food Store (Convenience / Variety)",1,43.6684594,-79.3749904,100
"10187416","MARKET CONVENIENCE","Food Store (Convenience / Variety)",1,43.706029,-79.4025099,100
"10187417","YONGE GIFT & VARIETY","Food Store (Convenience / Variety)",1,43.7155827,-79.4003179,100
"10187427","MAC'S","Food Store (Convenience / Variety)",1,43.7123631,-79.3643084,100
"10187443","GERRARD VARIETY","Food Store (Convenience / Variety)",1,43.6692132,-79.3361673,95
"10187444","SALSICHARIA E TALHO RIBEIRO","Butcher Shop",2,43.680863,-79.4624602,100
"10187448","DUNN MILK","Food Store (Convenience / Variety)",1,43.6335252,-79.4313405,100
"10187453","M & M MEAT SHOPS","Food Store (Convenience / Variety)",1,43.687169,-79.393044,100
"10187502","PETER PAN'S CONVENIENCE STORE","Food Store (Convenience / Variety)",1,43.7315494,-79.419263,100
"10187546","NYMARK CONVENIENCE","Food Store (Convenience / Variety)",1,43.7790061,-79.3654573,100
"10187556","EAST ASIAN STREET FAIR","Restaurant",3,43.6499883,-79.3905429,100
"10187561","EMILIANO & ANA'S - NO FRILLS","Supermarket",1,43.7013678,-79.5030299,100
"10187595","SPRING ROLLS","Restaurant",3,43.707051,-79.396711,60
"10187598","HEALTH DRUG MART","Food Store (Convenience / Variety)",1,43.7739038,-79.3412116,100
"10187658","SUBWAY","Restaurant",2,43.6834857,-79.3238098,100
"10187687","DANFORTH ROTI SHOP","Restaurant",3,43.6897685,-79.2954581,92
"10187696","YOGEN FRUZ","Food Court Vendor",2,43.7787787,-79.3447208,100
"10187731","BURGER KING","Restaurant",2,43.6908471,-79.2900763,100
"10187734","WESTWAY FOOD MART","Food Store (Convenience / Variety)",1,43.6962199,-79.5327609,100
"10187754","KNIBLETS","Food Take Out",2,43.6506232,-79.3764788,100
"10187938","CORNER KITCHEN","Food Take Out",3,43.666029,-79.3786191,90
"10187946","TOKYO SUSHI","Restaurant",3,43.7040599,-79.4105571,69
"10187987","IKKI SUSHI","Restaurant",3,43.7066636,-79.2513867,100
"10187995","MADE IN JAPAN TERIYAKI EXPERIENCE","Restaurant",2,43.7547774,-79.3515256,100
"10187998","STONEGATE SMOKE & GIFT","Food Store (Convenience / Variety)",1,43.6372972,-79.4887002,100
"10188056","HARVEY'S","Food Take Out",2,43.7013171,-79.4622902,100
"10188062","RUBY'S MEDITERRANEAN CUISINE","Restaurant",3,43.723874,-79.3014215,100
"10188091","CHEERS SMOKE SHOP","Food Store (Convenience / Variety)",1,43.6558337,-79.3920918,100
"10188109","PEOPLES CONVENIENCE","Food Store (Convenience / Variety)",1,43.6977873,-79.5434316,100
"10188112","EGLINTON CONVENIENCE","Food Store (Convenience / Variety)",1,43.6947059,-79.4547439,79
"10188163","THE REAL CANADIAN WHOLESALE CLUB","Supermarket",2,43.6816782,-79.4733643,100
"10188165","MR. SUB","Restaurant",2,43.7136038,-79.3351722,100
"10188196","WINGPORIUM SPORTS BAR & GRILL","Restaurant",2,43.6308114,-79.5177408,100
"10188233","REMBRANDT BANQUET HALLS","Banquet Facility",3,43.7822357,-79.2334655,100
"10188243","SWEET LULU","Restaurant",3,43.6458124,-79.4104508,100
"10188308","MASHALA YOUSAF HALAL MEAT & GROCERY","Supermarket",2,43.7613028,-79.2258838,92
"10188398","STARBUCKS COFFEE","Restaurant",1,43.6476356,-79.3962861,100
"10188474","BIRDS AND BEANS","Restaurant",2,43.6140345,-79.4889962,100
"10188481","ANJAPPAR CHETTINAD","Restaurant",3,43.7415859,-79.2269497,78
"10188512","T & T SUPERMARKET INC.","Commissary",3,43.8147991,-79.2373927,100
"10188526","EIKONA RESTAURANT","Restaurant",3,43.6653699,-79.3525814,77
"10188535","ZIMMERMAN FRESHMART","Supermarket",2,43.6547596,-79.4020166,100
"10188542","FIESTA FILIPINO LEVI'S CATERING","Food Take Out",3,43.719664,-79.3005559,86
"10188551","JOLLYS CAFE","Restaurant",3,43.7912909,-79.3134649,90
"10188666","NEW YORK DELI","Food Court Vendor",2,43.6449342,-79.5221936,100
"10188739","AMULET RESTAURANT AND BANQUET HALL","Restaurant",3,43.7777847,-79.4691558,100
"10188844","FOX & FIDDLE","Restaurant",2,43.6899179,-79.3946605,73
"10188945","TIM HORTONS","Restaurant",2,43.7527174,-79.5426327,94
"10188957","ELITE CATERING MANAGEMENT","Restaurant",3,43.6558228,-79.3889067,100
"10188976","FRED CARTER NEWSTAND","Food Store (Convenience / Variety)",2,43.6540179,-79.3877743,100
"10188986","NEWFOUNDLANDER RESTAURANT","Restaurant",2,43.677934,-79.3499363,100
"10189021","MASOUMEH HOT DOG CART","Hot Dog Cart",2,43.7218743,-79.2363391,100
"10189064","PHARMASAVE","Food Store (Convenience / Variety)",1,43.7454871,-79.2945774,100
"10189075","ESTHER, QUEEN OF SOUPS","Food Court Vendor",2,43.670356,-79.3870473,100
"10189077","ROASTY JACK CAFE","Food Court Vendor",3,43.670356,-79.3870473,73
"10189129","SUPER BAKER","Bakery",2,43.6227573,-79.519008,100
"10189130","TOPLINES CONVENIENCE","Food Store (Convenience / Variety)",1,43.7331506,-79.5883781,100
"10189132","BAKE'S VARIETY","Food Store (Convenience / Variety)",1,43.601926,-79.4996019,100
"10189141","SOMMER MARKET","Food Store (Convenience / Variety)",1,43.7437747,-79.6047884,100
"10189144","POPEYES CHICKEN & BISCUITS","Restaurant",2,43.7010647,-79.5188522,100
"10189310","ELISA HOUSE","Community Kitchen Meal Program",2,43.6179421,-79.4971945,100
"10189358","STARBUCKS COFFEE","Restaurant",2,43.6402786,-79.5379597,100
"10189369","FAMOUS WOK","Food Court Vendor",3,43.7058101,-79.347044,100
"10189375","KOREAN RESTAURANT & BAR (BONGEE)","Restaurant",3,43.663872,-79.4175112,100
"10189384","LEDBURY PARK ELEMENTARY & MIDDLE SCHOOL CAFETERIA","Secondary School Food Services",2,43.727415,-79.4276112,100
"10189395","DOMINO'S PIZZA","Food Take Out",2,43.6408814,-79.539478,100
"10189406","SNAPPER'S PARADISE","Restaurant",3,43.725016,-79.5505854,100
"10189614","FIONN MACCOOL'S","Restaurant",3,43.6493113,-79.3855754,100
"10189630","PHO MICAO VAN COM TAM","Restaurant",3,43.7237021,-79.509281,45
"10189677","TOYS ""R"" US (CANADA)","Food Store (Convenience / Variety)",1,43.7415579,-79.3141438,100
"10189680","ROYAL PASTRY","Bakery",2,43.7767282,-79.3164965,100
"10189693","COMPRI CATERING","Food Caterer",3,43.6587298,-79.3510486,100
"10189706","JEFF, ROSE AND HERBS NO FRILLS","Supermarket",1,43.5933244,-79.5387319,100
"10189834","RESIDENCE INN BY MARRIOTT - HEARTH ROOM","Restaurant",2,43.6907394,-79.5873793,100
"10189917","STARBANK CONVENIENCE MART","Food Take Out",2,43.6587113,-79.3499609,71
"10189919","GOLDEN HOUSE","Restaurant",3,43.6837114,-79.3923649,100
"10189925","SOUP IT UP","Food Court Vendor",2,43.6537037,-79.406063,82
"10189953","ART SQUARE","Restaurant",2,43.6541099,-79.3924664,99
"10190054","MARHABA SUPERMARKET","Butcher Shop",2,43.6907999,-79.2907523,94
"10190076","PAPE SUBS AND GRILL","Food Take Out",2,43.689923,-79.3490874,100
"10190082","TIM HORTON'S","Restaurant",2,43.6776677,-79.3512423,100
"10190110","STARBUCKS COFFEE CO","Restaurant",2,43.7325776,-79.4192654,100
"10190118","JOONS RESTAURANT","Restaurant",3,43.7626877,-79.4113244,100
"10190119","PIZZAVILLE","Restaurant",2,43.8329707,-79.2658803,100
"10190126","SUBWAY","Restaurant",2,43.7598296,-79.2251661,100
"10190139","SARAVANAA BHAVAN","Restaurant",2,43.8088942,-79.2698542,100
"10190176","DIDIER","Restaurant",3,43.6887172,-79.3944797,67
"10190199","CHINA TOWN TAKE-OUT","Food Take Out",3,43.7064074,-79.5048956,100
"10190260","TIM HORTONS","Restaurant",2,43.7583651,-79.3127708,100
"10190274","CREME DE LA CREME CAFE","Restaurant",2,43.647582,-79.5098187,100
"10190308","PIZZA HUT/ WING STREET","Food Take Out",2,43.6572389,-79.3741508,100
"10190326","CZEHOSKI","Restaurant",3,43.6465832,-79.4074016,100
"10190346","BIKKURI JAPANESE RESTAURANT","Restaurant",3,43.6495473,-79.3763956,100
"10190483","HERO CERTIFIED BURGERS","Food Court Vendor",2,43.6467685,-79.3824902,100
"10190485","FRESHII","Food Court Vendor",2,43.6467685,-79.3824902,100
"10190577","MR. SUB","Restaurant",2,43.6648327,-79.5017806,96
"10190703","IMPERIAL OIL CAFETERIA","Cafeteria - Public Access",3,43.7256819,-79.3333826,100
"10190737","MASELLIS SUPERMARKET","Supermarket",2,43.6800787,-79.3389606,100
"10190751","BASKIN ROBBINS","Food Take Out",2,43.6544272,-79.3903373,100
"10190775","PICO SPORTS BAR AND CAFE","Restaurant",2,43.6823569,-79.4687042,100
"10190827","BOURBON ST. GRILL","Food Court Vendor",3,43.7171167,-79.5963342,100
"10190840","PIZZAIOLO","Restaurant",2,43.6690456,-79.311812,100
"10190852","THE BANKNOTE","Restaurant",3,43.643913,-79.4025297,100
"10190858","CAYO COCO","Restaurant",3,43.6490776,-79.3917093,100
"10190870","PIZZA PIZZA","Restaurant",2,43.711495,-79.567701,100
"10190923","FOX  & FIDDLE","Restaurant",3,43.7104642,-79.363562,100
"10190956","SUBWAY","Restaurant",2,43.5979527,-79.5180763,100
"10191218","DAWES DOLLAR & VIDEOS","Food Store (Convenience / Variety)",1,43.7015441,-79.2969041,100
"10191241","SAMOSA & SWEETS FACTORY","Bakery",2,43.745727,-79.6155314,100
"10191243","HART HOUSE - CATERING","Banquet Facility",3,43.663669,-79.3946907,93
"10191323","KIYOMIZU RESTAURANT","Restaurant",3,43.7645992,-79.4102618,97
"10191335","TORONTO GENERAL HOSPITAL CATERING SERVICES","Food Caterer",2,43.6591987,-79.3868486,100
"10191362","PETIT MARCHE","Restaurant",2,43.6971607,-79.3924361,100
"10191372","BIG SUSHI RESTAURANT","Restaurant",3,43.6660435,-79.4068456,74
"10191513","BENFICA HOUSE OF TORONTO","Restaurant",3,43.6771773,-79.4471503,100
"10191710","WANLEE XIN CHINESE RESTAURANT","Restaurant",3,43.8329707,-79.2658803,100
"10191748","OK OK DINER","Restaurant",2,43.6622067,-79.3349024,98
"10191755","GOLD ZEN","Restaurant",3,43.7137808,-79.3996974,100
"10191813","TIM HORTONS","Food Take Out",2,43.7159577,-79.4454283,100
"10191833","NAKWON KOREAN RESTAURANT","Restaurant",3,43.7795055,-79.4155264,0
"10191924","KOWLOON SEAFOOD DIM SUM RESTAURANT","Restaurant",3,43.6561293,-79.3925472,97
"10191928","TIM HORTON'S","Restaurant",2,43.6494272,-79.3770981,100
"10192004","FORGET ABOUT IT SUPPER CLUB","Restaurant",3,43.6462337,-79.3909816,100
"10192032","HAIROUN BAKERY","Bakery",2,43.7804229,-79.2977493,100
"10192185","DAIRY QUEEN","Food Take Out",2,43.7226556,-79.2355628,100
"10192229","DAIRY QUEEN","Ice Cream / Yogurt Vendors",2,43.676037,-79.3596105,100
"10192244","WEXFORD CONVENIENCE","Food Store (Convenience / Variety)",1,43.7435683,-79.3042474,100
"10192250","THE EPICURE SHOP","Food Take Out",2,43.6640734,-79.3678601,62
"10192258","TIM HORTONS","Restaurant",2,43.7012699,-79.5109694,100
"10192263","WENDY'S","Restaurant",2,43.7012699,-79.5109694,100
"10192302","THE SULTAN'S TENT & CAFE MOROC","Restaurant",3,43.6480332,-79.3743776,100
"10192369","VEE'S CAFE","Food Take Out",3,43.7309822,-79.458343,100
"10192475","TIM HORTONS","Food Take Out",2,43.8040847,-79.3367429,100
"10192486","NEW TASTY CHICKEN HOUSE","Restaurant",1,43.6613792,-79.3389839,100
"10192513","BIBIMQ RESTAURANT","Restaurant",3,43.6663076,-79.3850223,65
"10192515","LOLA","Restaurant",2,43.6638752,-79.3836603,100
"10192525","4 LIFE NATURAL FOOD","Food Store (Convenience / Variety)",1,43.655286,-79.4023053,100
"10192599","OWL OF MINERVA","Restaurant",3,43.7733304,-79.4141168,65
"10192610","WHELAN'S GATE IRISH PUB","Restaurant",3,43.6553342,-79.4565038,100
"10192638","DAR HALAL MEAT MARKET","Butcher Shop",2,43.7362524,-79.5633249,100
"10192639","CHUTNEYS FINE INDIAN CUISINE","Restaurant",3,43.6466533,-79.513984,100
"10192723","SHEFIELD & SONS TOBACCONIST","Food Store (Convenience / Variety)",1,43.7685234,-79.4123633,100
"10192773","FORMOSA","Restaurant",3,43.7277321,-79.2877151,100
"10192840","PARISCO CAFE","Restaurant",3,43.6126518,-79.5559716,100
"10192849","UNICER FOODS LTD.","Food Depot",1,43.6781828,-79.483826,100
"10192883","LIVE ORGANIC FOOD BAR","Restaurant",2,43.6747158,-79.4082998,92
"10193089","SECOND CUP","Restaurant",1,43.688385,-79.3935167,100
"10193153","PIZZA PIZZA","Restaurant",2,43.6547853,-79.4594493,100
"10193202","RICHTREE MARKET RESTAURANT","Restaurant",3,43.7479025,-79.3848149,83
"10193279","SHOPPERS DRUG MART","Food Store (Convenience / Variety)",1,43.7583953,-79.3138975,100
"10193293","BELMORE SMOKE & BARBER SHOP","Food Store (Convenience / Variety)",1,43.7425672,-79.3079796,100
"10193570","TIM HORTONS","Restaurant",2,43.7987231,-79.3698805,100
"10193576","WHAT-A-BAGEL","Bakery",2,43.7000006,-79.4295462,100
"10193647","YUMMY YUMMY CHINESE FOOD","Food Take Out",3,43.6674683,-79.5002906,100
"10193663","CRISPY MEAT SHOP & WHOLESALER","Butcher Shop",2,43.7425775,-79.6042686,100
"10193782","JULIUS BANQUET HALL","Banquet Facility",3,43.7525016,-79.5363382,100
"10193787","PIAZZA MANNA RESTAURANT","Restaurant",3,43.780291,-79.41597,100
"10193788","LA FROMAGERIE","Food Take Out",2,43.6540688,-79.4242873,100
"10193837","SUBWAY","Food Court Vendor",2,43.6568994,-79.4355343,100
"10193878","MAVROS FOODS","Food Depot",1,43.6542002,-79.4425839,100
"10193989","BIM'S BENTO BOX JAPANESE FAST FOOD","Food Take Out",2,43.8088942,-79.2698542,100
"10194010","BASKIN-ROBBINS","Ice Cream / Yogurt Vendors",2,43.7419225,-79.31452,100
"10194031","KEN'S FRESH POULTRY MARKET","Butcher Shop",2,43.6647115,-79.3522743,100
"10194058","CENTRAL MARKET TROPICAL WHOLESALE OUTLET","Food Store (Convenience / Variety)",2,43.7594485,-79.5908245,100
"10194075","BOSTON PIZZA","Restaurant",3,43.6897713,-79.5855745,100
"10194100","AUNTY MARY'S FISH & CHIPS","Food Take Out",2,43.7619152,-79.2155842,100
"10194142","TIM HORTONS","Restaurant",2,43.6705078,-79.2974124,100
"10194183","CALDENSE BAKERY","Restaurant",2,43.6655639,-79.4886725,100
"10194251","FILM BUFF","Restaurant",2,43.6645531,-79.3248868,100
"10194257","ERSKINE FOOD MARKET","Food Store (Convenience / Variety)",1,43.7113538,-79.3986238,100
"10194348","99 CENT ZONE","Food Store (Convenience / Variety)",1,43.6405048,-79.4370885,100
"10194565","ORGANIC BOUTIQUE","Food Take Out",2,43.6444607,-79.4175863,100
"10194661","DRUXY'S FAMOUS DELI","Food Court Vendor",2,43.6591987,-79.3868486,100
"10194838","WIMPY'S DINER","Restaurant",3,43.7163777,-79.2616366,97
"10194867","THE CHICKEN PLACE","Food Take Out",2,43.7659962,-79.4006303,100
"10194895","KENNEDY BOWL","Restaurant",2,43.7509726,-79.2762254,100
"10194913","THE RIVERDALE PERK","Restaurant",2,43.6712556,-79.3467092,100
"10194934","DOMINO'S PIZZA","Food Take Out",2,43.766307,-79.2596307,100
"10194951","THE PICKLE BARREL","Restaurant",3,43.6126518,-79.5559716,100
"10194967","SAMPAGUITA VILLAGE","Restaurant",3,43.7367818,-79.4369766,100
"10195080","LA BELLA MANAGUA","Restaurant",3,43.6622312,-79.4249898,100
"10195176","CANYON CREEK CHOPHOUSE","Restaurant",3,43.7772513,-79.2613487,100
"10195242","NORTHTOWN CONVENIENCE","Food Store (Convenience / Variety)",1,43.7755883,-79.41302,100
"10195260","RAJWADI FOOD & SWEETS PROCESSING","Food Processing Plant",2,43.8236941,-79.2496973,74
"10195291","BISHOP MOROCCO BREAKFAST PROGRAM","Restaurant",2,43.6561843,-79.4521765,100
"10195295","STARBUCKS COFFEE","Restaurant",2,43.6797664,-79.3405778,100
"10195379","ALTON RESTAURANT","Restaurant",3,43.8224001,-79.2761545,95
"10195578","FAIRVIEW SEAFOOD CHINESE CUISINE","Restaurant",3,43.7934519,-79.2406811,100
"10195584","NICE CAFE","Restaurant",2,43.7323709,-79.2670255,100
"10195621","PANTAGES HOTEL & SPA","Banquet Facility",3,43.6540123,-79.3786466,100
"10195686","MASA SUSHI","Restaurant",3,43.6687289,-79.3853351,74
"10196103","PIZZA PIZZA","Food Take Out",2,43.64505,-79.3980122,100
"10196368","SAVORY THYMES","Food Take Out",1,43.7049212,-79.3748361,100
"10196376","YOUR DOLLAR STORE WITH MORE","Food Store (Convenience / Variety)",1,43.7685234,-79.4123633,100
"10196553","GRACE O'MALLEY'S","Restaurant",3,43.6477417,-79.3885938,100
"10196607","KOREAN MEAT SHOP","Butcher Shop",2,43.7769633,-79.4147453,100
"10196683","YES VARIETY","Food Store (Convenience / Variety)",1,43.7751862,-79.4139791,100
"10196769","ARBY'S","Food Court Vendor",2,43.6126518,-79.5559716,100
"10196816","PANASONIC THEATRE BARS","Cocktail Bar / Beverage Room",1,43.668015,-79.3858214,100
"10196874","LA ROSA'S BAKERY DELI & SNACKS","Bakery",2,43.6540582,-79.4017098,60
"10196937","RAJ GROCERS INC.","Supermarket",1,43.7606761,-79.5291808,100
"10196948","TIM HORTONS","Restaurant",2,43.652496,-79.3789312,100
"10197084","NEW ORLEANS FAST FOOD & DONUTS","Restaurant",3,43.6921244,-79.4401463,42
"10197086","ARMARK CANADA","Cafeteria - Public Access",3,43.804026,-79.3716959,100
"10197139","RONNIE'S LOCAL 069","Restaurant",1,43.6550794,-79.4026841,100
"10197432","KO FRUIT MARKET","Food Store (Convenience / Variety)",2,43.6435026,-79.4479432,89
"10197453","SUSHI QUEEN","Restaurant",3,43.6504104,-79.3889902,100
"10197485","OUR LADY QUEEN OF POLAND","Church Banquet Facility",2,43.8147553,-79.2592105,100
"10197515","YAL MARKET","Supermarket",2,43.7342423,-79.259552,100
"10197538","ST. JOHN'S BAKERY","Bakery",2,43.6604495,-79.3503282,91
"10197554","BOOSTER JUICE","Food Court Vendor",2,43.6591987,-79.3868486,100
"10197613","PIZZA PIZZA","Restaurant",2,43.6711589,-79.3872745,91
"10197785","7-ELEVEN","Food Store (Convenience / Variety)",2,43.6509357,-79.3814813,100
"10197857","TIM HORTONS","Food Court Vendor",2,43.7582453,-79.2264893,100
"10198133","THE WALLY TAP AND GRILL","Restaurant",2,43.6947024,-79.3433794,100
"10198346","BOOSTER JUICE","Food Court Vendor",2,43.6537037,-79.406063,100
"10198644","STARBUCKS COFFEE","Restaurant",2,43.6412979,-79.4147402,100
"10198647","STARBUCKS COFFEE #4638","Restaurant",2,43.6434964,-79.4224326,100
"10198651","AULD SPOT PUB","Restaurant",3,43.6773269,-79.3528959,98
"10198753","GRODZINSKI","Bakery",2,43.7277801,-79.4316139,99
"10198857","MARCELLO'S MARKET & DELI","Food Take Out",3,43.648684,-79.3802333,70
"10198926","OAKWOOD CAFE","Restaurant",2,43.6870756,-79.438651,72
"10198989","STARBUCKS COFFEE","Restaurant",2,43.6533848,-79.4272629,100
"10199011","LINUX CAFFE","Restaurant",2,43.6602479,-79.417351,93
"10199013","URBAN HERBIVORE","Food Take Out",2,43.6561598,-79.4027081,100
"10199085","FRESHSERVE FOODS","Restaurant",1,43.6531329,-79.3873899,100
"10199087","SWAY BAR","Restaurant",2,43.6764325,-79.4495814,100
"10199248","TRAN TRAN VARIETY & BAKERY","Food Store (Convenience / Variety)",1,43.6542845,-79.3987007,100
"10199369","UTSAV","Restaurant",2,43.671167,-79.3909459,100
"10199450","TAVORA INTERNATIONAL SUPERMARKET","Supermarket",2,43.6598096,-79.4443732,49
"10199468","RAHIER","Restaurant",2,43.7057489,-79.3753643,100
"10199628","TABULE","Restaurant",2,43.7009945,-79.396968,100
"10199658","PIZZAVILLE","Restaurant",2,43.6697945,-79.3010841,100
"10199780","TIM HORTONS","Food Court Vendor",2,43.6599046,-79.3886482,100
"10199793","BAMBOO CAFE RESTAURANT","Restaurant",3,43.6782538,-79.3491033,100
"10199843","INCONTRO CAFFE","Restaurant",2,43.708749,-79.453564,100
"10199858","ORLEY RESTAURANT & GRILL","Restaurant",3,43.7550508,-79.4421419,100
"10200138","FRANKIES BAR & CAFE","Restaurant",3,43.6443598,-79.4184398,100
"10200185","MBCO CAFE","Restaurant",3,43.6694021,-79.3910313,31
"10200279","NOVA ERA BAKERY","Restaurant",2,43.6753936,-79.454705,100
"10200453","DONUT DELIGHT","Restaurant",2,43.717786,-79.5226723,98
"10200465","TIM HORTONS","Food Take Out",2,43.7514093,-79.4572912,100
"10200474","KINGS VARIETY","Food Store (Convenience / Variety)",1,43.7632759,-79.1936872,99
"10200516","TORI ICHI FOOD CORP OF CANADA","Food Caterer",3,43.7590953,-79.1975569,100
"10200570","AMESBURY MIDDLE SCHOOL CAFETERIA","Secondary School Food Services",2,43.7094002,-79.4918133,100
"10200596","THE OLIVES RESTAURANT & BAR","Restaurant",3,43.7983958,-79.3176511,99
"10200627","OVERLEA HALAL MEAT & GROCERY","Butcher Shop",2,43.7058101,-79.347044,69
"10200814","EL GREEKO","Food Take Out",2,43.7200755,-79.5128508,100
"10200977","ROCKIE RACCOONS EATERY","Restaurant",2,43.7142555,-79.3997703,100
"10200987","ONTARIO EARLY YEARS CENTRE","Community Kitchen Meal Program",2,43.6037413,-79.504016,67
"10201073","SHOPPERS DRUG MART","Food Store (Convenience / Variety)",1,43.653929,-79.3802132,100
"10201080","BEER GARDEN/MARINA GRILL (MAIN ENTRANCE)","Restaurant",2,43.6306639,-79.4154452,100
"10201118","TIM HORTON'S","Restaurant",2,43.6474108,-79.3768027,100
"10201146","MARKET JOLLY","Food Take Out",3,43.7064199,-79.4430205,100
"10201164","BENDALE ACRES - BISTRO","Restaurant",2,43.7543291,-79.2514888,100
"10201197","NO FRILLS","Supermarket",1,43.6682015,-79.3429794,100
"10201253","META CENTRE","Food Take Out",2,43.7647818,-79.4742962,100
"10201429","WUI CHUN YUEN","Food Take Out",1,43.7914472,-79.3662125,100
"10201470","STREET LEVEL FOR TEENS & TWEENS","Community Kitchen Meal Program",2,43.6037413,-79.504016,100
"10201481","LAIDE","Restaurant",2,43.6517065,-79.372833,98
"10201525","DAISY MART","Food Store (Convenience / Variety)",1,43.7374572,-79.2445249,100
"10201583","H & T VARIETY","Food Store (Convenience / Variety)",1,43.681888,-79.4674142,100
"10201703","NEW ROTI SUPREME","Restaurant",3,43.7372943,-79.2447726,98
"10201707","AVENUE SEAFOOD","Fish Shop",2,43.729089,-79.4181981,100
"10201722","DOLLAR SMART","Food Store (Convenience / Variety)",1,43.6658837,-79.4850578,100
"10201884","TORITO TAPAS BAR","Restaurant",3,43.6568009,-79.4031025,100
"10201943","L'ESPRESSO BAR MERCURIO","Restaurant",3,43.6674851,-79.3992041,100
"10201963","MISTER YUMMY","Restaurant",3,43.6564802,-79.4524823,100
"10201976","SUN SUN FRUIT MARKET","Food Store (Convenience / Variety)",1,43.6780952,-79.4427782,100
"10202051","OLYMPIC SOFTEE INC.","Food Depot",1,43.7008129,-79.511854,100
"10202166","CANADA LIFE - ARAMARK CANADA","Banquet Facility",3,43.651723,-79.3874289,100
"10202321","GREG'S ICE CREAM","Ice Cream / Yogurt Vendors",2,43.6666416,-79.4038189,100
"10202519","99 CENTS EXPRESS","Food Store (Convenience / Variety)",1,43.7003596,-79.5170515,100
"10202630","PITA Q","Food Take Out",2,43.6666416,-79.4038189,76
"10202709","LUNG TUNG B.B.Q.","Food Take Out",3,43.7846605,-79.2780511,100
"10202730","WAI TACK KEEE FINE FOODS","Food Processing Plant",2,43.805445,-79.1949459,100
"10202748","SHAWARMA EMPIRE","Restaurant",3,43.7433246,-79.3035122,100
"10202834","METROPOLITAN GREEK ORTHODOX CENTER","Banquet Facility",2,43.8001562,-79.3015422,100
"10202851","JIMMY THE GREEK","Food Take Out",3,43.7245053,-79.4554545,98
"10203312","SUN STAR CHINESE CUISINE","Restaurant",3,43.7877735,-79.3807508,100
"10203390","TASTE OF THE SILK ROAD","Restaurant",3,43.6772083,-79.3532203,100
"10203480","GATEWAY NEWSTAND","Food Store (Convenience / Variety)",1,43.652496,-79.3789312,100
"10203565","GATEWAY NEWSTANDS","Food Store (Convenience / Variety)",1,43.6531464,-79.3824926,100
"10203876","STARBUCKS COFFE","Restaurant",2,43.7052315,-79.3749576,100
"10203954","BIRYANI","Food Court Vendor",3,43.6490287,-79.3838042,63
"10204249","YAMA JAPANESE RESTAURANT","Restaurant",3,43.6499414,-79.4819391,100
"10204575","GOLDEN MINT COFFEE & TEA CO.","Restaurant",1,43.6752711,-79.3887991,100
"10204593","TUNG TAK BBQ","Food Take Out",3,43.8130863,-79.2915115,97
"10204662","POGUE MAHONE IRISH PUB","Restaurant",3,43.660489,-79.384447,100
"10204686","WALLY'S SMOKE","Food Store (Convenience / Variety)",1,43.658457,-79.4877492,100
"10204958","FINCH WESTON MEDICAL PHARMACY (MAIN DRUG MART)","Food Store (Convenience / Variety)",1,43.751951,-79.5425623,100
"10204970","MARIA'S CORNER CAFE","Restaurant",3,43.720792,-79.332168,100
"10204974","SEOUL HOUSE","Restaurant",3,43.7182504,-79.4569249,43
"10205302","SOPRA","Restaurant",3,43.6742947,-79.3982251,100
"10205315","BRUCE'S GIFTS & VARIETY","Food Store (Convenience / Variety)",1,43.6650023,-79.4684696,100
"10205370","THAI FUSION RESTAURANT","Restaurant",3,43.6962307,-79.3288485,100
"10205373","SUBWAY","Food Take Out",2,43.6687463,-79.3388134,100
"10205381","SILVERTHORN VARIETY","Food Store (Convenience / Variety)",1,43.6743441,-79.4601782,100
"10205475","SHARABLE BAKERY","Bakery",2,43.8268099,-79.2766584,42
"10205494","AVENUE CAFE & BISTRO","Restaurant",2,43.6550684,-79.3888854,98
"10205558","EASY SEAFOOD","Fish Shop",2,43.7262368,-79.2998239,100
"10205581","MOXIE'S CLASSIC GRILL","Restaurant",3,43.763993,-79.4125208,100
"10205601","GATEWAY NEWSTAND #220","Food Store (Convenience / Variety)",1,43.7253905,-79.4485037,100
"10205717","7-ELEVEN","Food Take Out",2,43.6293,-79.5171444,100
"10205719","ONE STOP RESTAURANT","Restaurant",3,43.6968882,-79.4424911,71
"10205851","DUKEM RESTAURANT","Restaurant",2,43.6803779,-79.3381594,100
"10205952","TIM HORTONS","Restaurant",2,43.7063325,-79.3980678,100
"10206164","POOR JOHN'S CAFE","Restaurant",2,43.6396626,-79.4418497,100
"10206294","LA CUBANITA RESTAURANT","Restaurant",3,43.7511732,-79.5527356,100
"10206357","HIBISCUS","Food Take Out",2,43.6554034,-79.4023907,100
"10206386","YORK U - TUCHNERS PUB SEYMOUR BUILDING","Cocktail Bar / Beverage Room",2,43.7725581,-79.4980681,84
"10206419","BANU","Restaurant",3,43.6463611,-79.408086,100
"10206620","SHOPPERS DRUG MART","Food Store (Convenience / Variety)",1,43.7727818,-79.2512716,100
"10206653","FAST FRESH FOODS","Food Court Vendor",2,43.6482944,-79.3800809,100
"10206656","SIMON SUSHI","Restaurant",3,43.6568522,-79.3994738,100
"10206726","MAMMA'S PIZZA","Food Take Out",2,43.637196,-79.4100446,100
"10206744","ST LOUIS BAR & GRILL","Food Take Out",2,43.637196,-79.4100446,100
"10206784","CONVENIENCE.COM","Food Store (Convenience / Variety)",1,43.6638258,-79.4022745,100
"10206825","NORTH-EAST CHINESE RESTAURANT","Restaurant",3,43.6532976,-79.3969039,91
"10206855","KFC/PIZZA HUT","Restaurant",3,43.6804559,-79.4313139,100
"10206938","SPICY DRAGON RESTAURANT","Food Take Out",3,43.7493969,-79.2750163,100
"10207005","BRUNSWICK HOUSE","Restaurant",1,43.6658378,-79.4071464,100
"10207015","YUMMY REFILLS","Food Take Out",2,43.6526015,-79.3980461,96
"10207020","CHINESE BAKERY","Bakery",2,43.653371,-79.3955531,89
"10207031","YE OLDE FUDGE POT","Food Take Out",1,43.6350148,-79.4111826,100
"10207039","CANTEEN RESTAURANT","Restaurant",3,43.6526015,-79.3980461,70
"10207046","DAPHNE'S DINER","Food Take Out",3,43.637196,-79.4100446,100
"10207076","UKRAINIAN NATIONAL FEDERATION OF CANADA","Banquet Facility",2,43.6187627,-79.5100413,100
"10207078","HOT WAFFLES/ICE CREAM","Food Take Out",2,43.637196,-79.4100446,100
"10207093","INDIAN BIRIYANI HOUSE","Restaurant",3,43.6551021,-79.3865469,86
"10207132","EN ROUTE CATERING INC.","Food Caterer",3,43.8072731,-79.2372209,100
"10207140","KEW GARDEN VARIETY","Food Store (Convenience / Variety)",1,43.6698145,-79.3009433,100
"10207323","TAJ BANQUET HALL","Banquet Facility",3,43.7719094,-79.5381359,95
"10207491","OXFORD PUB & RESTAURANT","Restaurant",2,43.736235,-79.2499387,100
"10207546","SUBWAY - KFF MADISON","Supermarket",2,43.7644891,-79.4121698,99
"10207593","NAOMI","Restaurant",3,43.6394608,-79.4210002,100
"10207597","TALHO & SALSICHARIA","Supermarket",3,43.6622003,-79.4251211,100
"10207655","THE BAGEL STOP","Food Take Out",2,43.6698059,-79.3889573,100
"10207714","TIMOTHY'S ESPRESSO BAR","Food Take Out",1,43.6698059,-79.3889573,100
"10207745","MRS BRIDGES' BRITISH BAKERY","Food Store (Convenience / Variety)",1,43.723874,-79.3014215,100
"10207773","SUNNY SUPERMARKET","Supermarket",2,43.7911122,-79.3680421,98
"10207999","COFFEE TIME DONUTS","Food Take Out",2,43.7284972,-79.4779765,53
"10208063","CABBAGE TOWN ORGANICS","Supermarket",2,43.6647943,-79.3683148,98
"10208078","PERFECT SPOT","Food Take Out",2,43.6856641,-79.4730731,100
"10208094","LAKESHORE SUPER SUBMARINE","Restaurant",2,43.6005819,-79.5055264,100
"10208221","DESSERT TRENDS","Restaurant",3,43.6624088,-79.4053536,100
"10208281","MR. POTATO","Food Processing Plant",1,43.7608018,-79.2712585,73
"10208288","EMPIRE RESTAURANT AND LOUNGE","Restaurant",3,43.6707363,-79.3890456,100
"10208368","THAI BASIL GARDEN","Restaurant",3,43.7682458,-79.4690831,93
"10208537","CMP WHOLESALE MEAT","Butcher Shop",2,43.6703101,-79.4776523,100
"10208543","SUPER LEE PIZZA","Food Take Out",2,43.7866071,-79.2760115,100
"10208599","TIM HORTONS ON THE RUN","Food Take Out",2,43.6321035,-79.5447934,100
"10208806","YORK U - ORANGE SNAIL PUB STONG COLLEGE","Restaurant",3,43.7742392,-79.5014316,100
"10208813","LATINADA TAPAS RESTAURANT","Restaurant",3,43.6552964,-79.4566874,100
"10208881","TASTE GOOD B.B.Q.","Food Take Out",3,43.7865992,-79.2759763,100
"10208886","AZA JAPANESE & KOREAN RESTAURANT","Restaurant",3,43.6006586,-79.5449766,100
"10208916","CHRIS' CHEESE - MONGERS","Restaurant",2,43.6490516,-79.3717741,100
"10208951","BANABOIA RESTAURANT","Restaurant",3,43.6819653,-79.468203,100
"10208963","EMART","Supermarket",3,43.663795,-79.4174114,55
"10208982","FOOD PLUS MARKET (COUNTRY STYLE/YOGEN FRUZ)","Food Store (Convenience / Variety)",2,43.6750007,-79.4070277,100
"10209031","MARIO'S LATIN VIDEO","Food Store (Convenience / Variety)",1,43.6645856,-79.4137816,100
"10209046","MICHELLE'S PLACE RESTAURANT & COUNTRY BAR","Restaurant",2,43.6992969,-79.5139309,100
"10209057","LEMONGRASS RESTAURANT","Restaurant",3,43.822058,-79.298592,72
"10209134","TORTILLA FLATS","Restaurant",3,43.6481032,-79.3995084,73
"10209243","PEACH TREE HEALTH FOODS","Food Store (Convenience / Variety)",2,43.65098,-79.4769898,100
"10209257","KISKADEE","Food Depot",1,43.8273129,-79.2522798,100
"10209296","VEDA FINE INDIAN TAKEOUT","Restaurant",3,43.6725622,-79.3877322,100
"10209301","JUGO JUICE","Food Take Out",2,43.653929,-79.3802132,100
"10209320","LETTUCE EATERY/ FRESHII","Restaurant",2,43.6705338,-79.3853063,100
"10209392","SUBWAY","Restaurant",2,43.6395961,-79.3835943,100
"10209440","EPI BREADS","Food Take Out",2,43.704143,-79.3747648,81
"10209465","LA BAMBOCHE","Bakery",2,43.7026904,-79.3970423,100
"10209496","NOODLE KING","Food Take Out",3,43.6512559,-79.3843677,96
"10209498","GAIVOTA CAFE","Cocktail Bar / Beverage Room",2,43.6652987,-79.4528472,100
"10209585","BENTO NOUVEAU","Food Take Out",3,43.7751172,-79.4141084,100
"10209588","TRILLIUM CAFE","Restaurant",3,43.7633558,-79.4121921,66
"10209688","HAMSHOW MINI MARKET","Food Store (Convenience / Variety)",2,43.7256268,-79.5514628,100
"10209706","SHOPPERS DRUG MART","Food Store (Convenience / Variety)",1,43.766173,-79.4122384,100
"10209733","SOBEY'S EXPRESS","Supermarket",3,43.6451577,-79.4485777,100
"10210939","SIMCOE MARKET PLACE","Food Take Out",2,43.6446094,-79.3860066,100
"10211247","TIM HORTONS","Food Take Out",2,43.6952589,-79.487599,100
"10211314","SIMON'S COFFEE SHOP #106","Restaurant",2,43.6562274,-79.4090135,100
"10211333","PATACHOU CAFE","Restaurant",2,43.6789661,-79.3905023,97
"10211355","THE BURRITO HOUSE","Restaurant",2,43.679804,-79.3413168,100
"10211358","GHAREEB NAWAZ RESTAURANT","Food Take Out",3,43.6807662,-79.3355611,92
"10211387","TIM HORTONS","Restaurant",2,43.6467063,-79.513758,100
"10211457","HOWARD FERGUSON DINING HALL","Secondary School Food Services",3,43.663046,-79.397786,100
"10211463","CAFE REZNIKOFF'S","Restaurant",3,43.663046,-79.397786,100
"10211507","WHITE TOWER BURGER","Restaurant",2,43.7471035,-79.5250823,100
"10211530","RIO 40 DEGREES RESTAURANT & BAR","Restaurant",3,43.677361,-79.446406,93
"10211542","PIZZA NOVA","Food Take Out",2,43.7071543,-79.3987777,100
"10211591","CINNABON INC.","Food Take Out",2,43.7614899,-79.4110809,100
"10211658","LEMONGRASS","Restaurant",3,43.6449342,-79.5221936,90
"10211713","PHO NHO","Restaurant",3,43.6520847,-79.4476695,100
"10211754","JASMINE CHINESE FOOD","Food Take Out",3,43.7983958,-79.3176511,100
"10211759","DONVIEW MIDDLE SCHOOL CAFETERIA","Secondary School Food Services",2,43.7641816,-79.3308362,100
"10211831","RESTAURANT #27","Restaurant",3,43.7084544,-79.3105768,97
"10211882","MIRCH MASALA GROCERIES","Supermarket",1,43.7679716,-79.2285445,100
"10212159","SUBWAY","Restaurant",2,43.7583651,-79.3127708,100
"10212227","WORLD MILK VARIETY","Food Store (Convenience / Variety)",1,43.7095931,-79.4441243,100
"10212263","KENTUCKY FRIED CHICKEN","Food Take Out",2,43.7571463,-79.5183598,100
"10212343","LAWRENCE PARK RESTAURANT & BAR","Restaurant",3,43.701385,-79.5107328,100
"10212373","SEVEN EAST","Restaurant",3,43.6788741,-79.390443,100
"10212382","ARTISANO BAKERY CAFE","Restaurant",2,43.630826,-79.517841,96
"10212456","MIMI'S CAFFE","Restaurant",2,43.7075314,-79.3945183,100
"10212491","THAI BOWL","Food Court Vendor",3,43.6613558,-79.3831089,83
"10212499","PIZZA PIZZA","Restaurant",2,43.6589918,-79.4392866,94
"10212507","GRAND CHINESE CUISINE","Restaurant",3,43.6899798,-79.5773627,100
"10212558","CASA IMPERIAL FINE CHINESE CUISINE","Restaurant",3,43.8196674,-79.3225064,98
"10212686","STUDENT EATERY","Restaurant",2,43.6819714,-79.3299402,30
"10212709","TOP VARIETY","Food Store (Convenience / Variety)",1,43.6006904,-79.5050379,100
"10212722","LIVING HEALTHY","Food Store (Convenience / Variety)",1,43.7294088,-79.5739438,100
"10212768","DUMPLING HOUSE RESTAURANT","Restaurant",3,43.653841,-79.3986359,96
"10212836","PIZZA NOVA","Food Take Out",2,43.787714,-79.2669683,100
"10212926","YOGEN FRUZ","Food Take Out",2,43.7245053,-79.4554545,100
"10212935","GENGHIS KHAN MONGOLIAN GRILL","Restaurant",3,43.7268964,-79.3422374,100
"10212962","TEA SHOP 168","Food Store (Convenience / Variety)",1,43.6521284,-79.3975925,100
"10212976","MONGOLIAN HOT POT #1","Restaurant",3,43.7912689,-79.3134554,88
"10213006","GODIVA CHOCOLATIER","Food Store (Convenience / Variety)",1,43.7264831,-79.4529768,100
"10213033","HOME BURGER","Restaurant",2,43.7429862,-79.2205619,100
"10213099","THE BAGEL STOP","Food Take Out",2,43.7071543,-79.3987777,100
"10213145","MAINSHA RESTAURANT","Food Take Out",3,43.6841634,-79.4722511,89
"10213155","TIFCO TORONTO INTERNATIONAL FARMS CO.","Food Depot",2,43.6047606,-79.5264784,100
"10213168","TORONTO SUN WAH TRADING","Food Processing Plant",2,43.6228692,-79.5112943,100
"10213268","QUEEN'S MINI MART","Food Store (Convenience / Variety)",1,43.6392277,-79.4437837,100
"10213308","AMBASSADOR SAUNA","Banquet Facility",2,43.75518,-79.4410167,100
"10213314","SECOND CUP","Food Court Vendor",2,43.6449342,-79.5221936,100
"10213322","FRANCIS LIBERMANN CAFETERIA","Cafeteria - Public Access",2,43.8065812,-79.2742223,100
"10213357","CHRIS BREAD BAKERY","Bakery",3,43.7356323,-79.2525112,98
"10213376","HARVEST","Food Store (Convenience / Variety)",1,43.6532189,-79.3982857,100
"10213405","NAMA SUSHI","Restaurant",3,43.6813243,-79.4281275,100
"10213507","SUBWAY","Restaurant",2,43.7119787,-79.3757873,97
"10213686","WESTON RECREATION CENTRE","Refreshment Stand (Stationary)",2,43.6996357,-79.5188844,100
"10213755","MULAN CHINESE CUISINE","Restaurant",3,43.7136038,-79.3351722,100
"10213807","BOURBON ST GRILL","Food Take Out",3,43.6446094,-79.3860066,96
"10213823","DUFFERIN GROVE PARK - THE COB","Food Take Out",2,43.6561331,-79.4338199,78
"10213829","PIZZA PIZZA","Restaurant",2,43.7350041,-79.2575984,100
"10213935","TACO BELL","Restaurant",2,43.7626176,-79.2258458,100
"10213985","THE PICKLE BARREL GRAND AT THE ATRIUM","Restaurant",3,43.6566745,-79.3812256,100
"10214008","MARKETTE TOTAL CONVENIENCE","Food Store (Convenience / Variety)",1,43.6172483,-79.4874268,100
"10214011","JACK ASTOR'S BAR & GRILL","Restaurant",3,43.6140661,-79.560381,100
"10214135","ON THE GO - KIOSK LOBBY","Food Take Out",1,43.731335,-79.5975826,100
"10214143","GABBY'S","Restaurant",2,43.6696804,-79.3757831,66
"10214206","PIZZA NOVA  (FB 131,32,33,34,35)","Food Take Out",2,43.6770793,-79.3553004,100
"10214218","UDUPI PALACE","Restaurant",3,43.6725999,-79.3211097,100
"10214220","SUPER KOLBASA","Food Take Out",3,43.6430156,-79.4477493,100
"10214270","NOBLE SEAFOOD RESTAURANT","Restaurant",3,43.6528809,-79.3989716,97
"10214364","FRESH ON SPADINA","Restaurant",2,43.6478861,-79.3958663,81
"10214410","TERIYAKI EXPERIENCE","Food Take Out",3,43.7071543,-79.3987777,63
"10214422","TIM HORTONS","Restaurant",2,43.7655607,-79.412804,100
"10214579","SUSHI-YA JAPAN","Restaurant",3,43.6903045,-79.5763994,100
"10214812","CAMPBELL'S COMPANY STORE","Food Store (Convenience / Variety)",1,43.6048916,-79.4990773,100
"10214840","FORTUNE SEAFOOD RESTAURANT","Restaurant",3,43.8130863,-79.2915115,76
"10214857","D.G.A. FILIPINO VARIETY STORE","Food Take Out",2,43.7003494,-79.4403078,100
"10214894","SUBWAY SANDWICHES","Food Take Out",2,43.6957518,-79.4493933,100
"10214896","ON THE RUN","Food Store (Convenience / Variety)",1,43.6957518,-79.4493933,100
"10214900","MICHEL'S BAGUETTE BAKERY CAFE","Food Take Out",2,43.6126518,-79.5559716,100
"10215067","STOP VARIETY","Food Store (Convenience / Variety)",1,43.6790046,-79.3444086,100
"10215070","SLACKS RESTAURANT & BAR","Restaurant",3,43.6660408,-79.3812162,100
"10215202","COUNTRY STYLE","Food Take Out",2,43.7690005,-79.1757454,100
"10215214","SUSHI MARCHE","Food Take Out",2,43.6620072,-79.3357198,100
"10215250","ASIAN  LEGEND","Restaurant",3,43.7914472,-79.3662125,100
"10215351","FORUM BANQUET HALL","Banquet Facility",3,43.7444565,-79.6087693,100
"10215392","THE CLOAK AND DAGGER IRISH PUB","Restaurant",2,43.6570533,-79.4057149,100
"10215626","MCDONALD'S","Restaurant",2,43.6690087,-79.4851757,100
"10215634","WAL-MART","Food Store (Convenience / Variety)",2,43.6690087,-79.4851757,100
"10215659","XPRESS TROPICAL FOODS & MEAT","Butcher Shop",2,43.7037555,-79.504332,100
"10215665","LETI EUROPEAN DELI STOP","Butcher Shop",2,43.7583953,-79.3138975,100
"10215693","THE CONGRESS","Cocktail Bar / Beverage Room",2,43.7574863,-79.4102074,100
"10215712","STARBUCKS COFFEE #4518","Restaurant",1,43.6591987,-79.3868486,100
"10215781","THE BISHOP AND THE BELCHER","Restaurant",3,43.6710496,-79.3829454,100
"10215785","THE FISH AND SANDWICH","Food Take Out",3,43.6550198,-79.4162107,100
"10215829","RICE & NOODLE","Restaurant",3,43.6403706,-79.4383721,100
"10215855","ISHATAR RESTAURANT AND BAR","Restaurant",3,43.7511732,-79.5527356,100
"10215878","MR SUB","Restaurant",2,43.6838818,-79.5648424,100
"10215880","STARBUCKS COFFEE","Restaurant",2,43.6467546,-79.5142561,99
"10215912","FAEMA CAFFE BOUTIQUE","Food Take Out",2,43.6126518,-79.5559716,100
"10215916","TIM HORTONS","Restaurant",2,43.6658286,-79.3685635,100
"10215949","JAYNE'S GOURMET CATERING","Food Caterer",3,43.6656147,-79.4731154,100
"10215958","HOT DOG CART #4872","Hot Dog Cart",1,43.6714962,-79.3798893,100
"10216010","CENTRAL TECHNICAL SCHOOL","Restaurant",3,43.6637272,-79.4087613,90
"10216146","HORIZONS","Restaurant",3,43.784139,-79.2330337,100
"10216184","VERTICAL","Restaurant",3,43.6487309,-79.3837591,100
"10216239","TIM HORTONS","Food Take Out",2,43.7935209,-79.2381275,100
"10216240","MARKHAM/SHEPPARD ESSO","Food Store (Convenience / Variety)",1,43.7935209,-79.2381275,100
"10216355","ROSS' NO FRILLS","Supermarket",2,43.6871957,-79.4842058,100
"10216422","SUN MILK & VARIETY","Food Store (Convenience / Variety)",1,43.6877233,-79.4242971,100
"10216424","K-VARIETY","Food Store (Convenience / Variety)",1,43.6875752,-79.4238389,85
"10216452","EDMUNDO SNACK BAR & BILLIARDS","Food Take Out",2,43.687445,-79.4387017,100
"10216456","NOBLE CULINARY","Food Caterer",3,43.7262934,-79.283195,100
"10216497","PACINO PANINO","Restaurant",3,43.7712454,-79.5415298,100
"10216620","EUGENIO FRESH FRUITS","Food Take Out",1,43.7496488,-79.4779516,100
"10216622","ONTARIO FRESH FRUITS AND VEGETABLES","Food Take Out",1,43.7496488,-79.4779516,80
"10216636","MR. SOUVLAKI","Food Take Out",3,43.6446094,-79.3860066,100
"10216660","MIRTO ITALIAN RESTAURANT","Restaurant",3,43.6505542,-79.3763334,100
"10216729","TOWER CITY INC DOLLAR AND VARIETY","Food Store (Convenience / Variety)",1,43.6591425,-79.4394601,100
"10216738","BEACH SIDE GRILL","Restaurant",3,43.669206,-79.3038214,100
"10216758","THE LIGHTHOUSE","Food Bank",1,43.6707213,-79.4133954,100
"10216934","EL SABOR DOMINICANO","Food Take Out",3,43.7496488,-79.4779516,100
"10216936","SWEET BLISS","Bakery",2,43.6638256,-79.3281508,100
"10216939","PUPUSERIA","Food Take Out",3,43.7496488,-79.4779516,100
"10216943","THE OLD HOUSE","Restaurant",3,43.7868208,-79.2760934,100
"10216979","LESLIE JONES","Restaurant",3,43.6628904,-79.3318366,100
"10217062","IL POSTO","Restaurant",3,43.67005,-79.393736,100
"10217349","FAT CAT WINE BAR","Restaurant",3,43.649092,-79.4501056,100
"10217368","WEI FUNG FRUIT CO","Food Depot",1,43.602927,-79.5071612,97
"10217372","CENTENNIAL COLLEGE TIM HORTONS","Food Take Out",2,43.7867961,-79.1935169,100
"10217377","CENTENNIAL COLLEGE HP CENTRE","Secondary School Food Services",3,43.7867961,-79.1935169,100
"10217491","IN CAMERA DINING ROOM","Restaurant",3,43.6637753,-79.3916747,95
"10217504","PIZZA HUT","Food Take Out",2,43.6962199,-79.5327609,100
"10217505","IMPRESSIONS CAFE - WILLIAM OSLER HEALTH CENTRE","Cafeteria - Public Access",2,43.7302327,-79.6009357,100
"10217509","GRAND BUBBLE TEAS","Food Court Vendor",2,43.7415018,-79.5837615,100
"10217513","BRAR PAKWAN","Bakery",2,43.7380853,-79.5659208,100
"10217563","SUPREME X","Food Vending Facility",1,43.7464657,-79.6220398,100
"10217611","NANIWA/TARO - JAPANESE FOOD","Food Court Vendor",2,43.8328306,-79.2658718,100
"10217779","YUAN YUAN CHINESE RESTAURANT","Restaurant",3,43.7871558,-79.2760068,100
"10217849","BRAR PAKWAN","Restaurant",2,43.7381861,-79.5661648,96
"10217856","FRESHII","Restaurant",2,43.6478349,-79.3961519,100
"10217951","YUMMY MARKET","Supermarket",3,43.7653651,-79.4676105,93
"10218002","DESSERT LADY","Food Depot",1,43.8103176,-79.293228,100
"10218020","NEW G. ALI BABA","Restaurant",3,43.672746,-79.3195044,81
"10218077","THE FOUNDATION ROOM","Restaurant",1,43.6484326,-79.3736504,100
"10218321","COLUMBIA COFFEE","Food Processing Plant",2,43.726815,-79.5284787,100
"10218441","MICHELS BAGUETTE","Restaurant",2,43.7743445,-79.2535219,100
"10218530","KIM KIM HAKKA CHINESE RESTAURANT","Restaurant",3,43.7538309,-79.2767239,100
"10218548","TIMOTHY'S WORLD COFFEE","Restaurant",2,43.6495826,-79.384253,100
"10218578","CAFE SUPREME","Restaurant",3,43.6392865,-79.3808801,96
"10218647","GIBOS VARIETY","Food Store (Convenience / Variety)",1,43.7563341,-79.588186,100
"10218650","TI CARLOS","Restaurant",3,43.6764647,-79.4504132,100
"10218725","SOTTO IN THE VILLAGE","Restaurant",3,43.6889878,-79.4126654,100
"10218746","THE BUTCHER SHOPPE","Butcher Shop",2,43.6242833,-79.541391,100
"10218749","SUGAR & SPICE BULK FOODS","Butcher Shop",2,43.6974952,-79.4426738,73
"10218788","SUGAR MAPLE VARIETY","Food Store (Convenience / Variety)",1,43.6880128,-79.3291792,100
"10218889","KITCHEN FOOD FAIR","Food Store (Convenience / Variety)",1,43.7058101,-79.347044,100
"10218906","NO FRILLS","Supermarket",2,43.7083187,-79.2959587,100
"10218912","TIM & SUE'S NO FRILLS","Supermarket",2,43.664243,-79.4686437,100
"10218943","HADFIELD VARIETY","Food Store (Convenience / Variety)",1,43.7535101,-79.1865828,100
"10218984","TIM HORTONS","Food Store (Convenience / Variety)",2,43.7013171,-79.4622902,100
"10218993","HONEY WORLD","Food Store (Convenience / Variety)",1,43.6490516,-79.3717741,100
"10218994","PHIL'S PLACE","Food Store (Convenience / Variety)",1,43.6490629,-79.3721263,100
"10218995","EVE'S TEMPTATIONS","Food Store (Convenience / Variety)",1,43.6483154,-79.3714179,100
"10218996","LIVELY LIFE","Food Store (Convenience / Variety)",1,43.6490516,-79.3717741,100
"10219018","B & D VARIETY","Food Store (Convenience / Variety)",1,43.691724,-79.303403,100
"10219267","SISTERING","Community Kitchen Meal Program",3,43.6613184,-79.428765,100
"10219301","SUBWAY","Restaurant",2,43.7493969,-79.2750163,100
"10219359","JUGO JUICE","Food Take Out",2,43.6452762,-79.3804855,100
"10219380","BOOSTER JUICE","Restaurant",2,43.652496,-79.3789312,100
"10219396","MIKE'S VARIETY","Food Store (Convenience / Variety)",1,43.6970469,-79.4510764,100
"10219571","SPRING ROLLS GO","Restaurant",3,43.66513,-79.3524835,100
"10219613","SALAMANDER BAKERY","Food Caterer",2,43.7084513,-79.4435235,100
"10219713","GLEN RHODES FOOD BANK & HOT MEAL","Food Bank",1,43.6726604,-79.3208996,100
"10219731","TIM HORTON'S","Restaurant",2,43.6983458,-79.3966321,98
"10219742","MR SUB","Restaurant",2,43.8223912,-79.2472683,100
"10219759","MABELLE TUCK SHOP","Food Store (Convenience / Variety)",1,43.6464157,-79.5266204,100
"10219778","GINGER","Restaurant",3,43.6655494,-79.3808808,93
"10219787","LA FONTINA CATERING & PREPARED FOODS","Food Caterer",3,43.7024901,-79.4533181,100
"10219788","SUBWAY","Food Take Out",2,43.6509109,-79.3702175,100
"10219857","NATURAL SOLUTIONS HEALTH FOODS","Food Store (Convenience / Variety)",1,43.6126518,-79.5559716,100
"10219882","SUBWAY","Restaurant",2,43.7631424,-79.2915261,100
"10219909","PIZZA PIZZA","Restaurant",2,43.6710251,-79.3282194,100
"10219974","CENTRAL NEIGHBOURHOOD HOUSE","Community Kitchen Meal Program",2,43.660582,-79.369085,100
"10219990","MARRON BISTRO MODERNE","Restaurant",3,43.7004692,-79.4285938,100
"10220137","PIZZA L'AMORE","Food Take Out",2,43.7266769,-79.2308067,100
"10220283","THE STONEMILL BAKEHOUSE LTD.","Bakery",2,43.7982096,-79.2431173,100
"10220292","FRIENDLY HOUSE RESTAURANT","Restaurant",3,43.7867263,-79.417342,100
"10220331","G. G. BAR & EATERY","Restaurant",2,43.6708238,-79.3283558,100
"10220366","COUNTRY STYLE","Food Take Out",2,43.6067655,-79.5207296,100
"10220411","ALEX FARM PRODUCTS","Food Take Out",2,43.6626962,-79.5195695,100
"10220418","SPRING FRUIT MARKET","Food Store (Convenience / Variety)",1,43.6795294,-79.5467908,99
"10220437","WINCHESTER CAFE/PARK SNACKS","Restaurant",2,43.6670565,-79.3631054,100
"10220526","ASIAN GOURMET","Food Take Out",3,43.786047,-79.1872867,100
"10220527","TREATS","Food Take Out",2,43.786047,-79.1872867,100
"10220528","SUBWAY","Food Take Out",2,43.786047,-79.1872867,100
"10220593","J & J TUCK SHOP","Food Store (Convenience / Variety)",1,43.6463344,-79.5293913,100
"10220850","UNCLE MEL'S FAMILY RESTAURANT & KAREOKE BAR","Restaurant",3,43.727923,-79.4787982,100
"10220923","REBOZOS","Restaurant",3,43.6847941,-79.4496031,100
"10220956","ESSENCE OF LIFE ORGANICS NATURAL FOODS INC","Food Store (Convenience / Variety)",1,43.6540515,-79.4005062,100
"10221008","GATEWAY NEWSTAND","Food Store (Convenience / Variety)",1,43.6495763,-79.37592,100
"10221024","JULES CAFE PATISSERIE","Restaurant",2,43.7041557,-79.3882641,59
"10221035","COFFEE TIME DONUTS","Food Take Out",2,43.7060442,-79.4889936,100
"10221093","NATURE'S HEALTH FOOD","Food Store (Convenience / Variety)",1,43.7415018,-79.5837615,100
"10221094","M & S KITCHEN FOOD FAIR","Food Store (Convenience / Variety)",1,43.7294088,-79.5739438,100
"10221144","PIAZZETTA TRATTORIA","Restaurant",3,43.7335547,-79.4042471,67
"10221251","BROADVIEW CONVENIENCE","Food Store (Convenience / Variety)",1,43.6772213,-79.3588669,100
"10221253","FRANK'S SMOKE SHOP","Food Store (Convenience / Variety)",1,43.7458409,-79.2934233,81
"10221395","SUSHI 2 GO","Restaurant",3,43.637427,-79.5389368,93
"10221407","S.S.2 FAMOUS BAR & RESTAURANT","Restaurant",2,43.6203124,-79.499897,100
"10221512","TIM HORTONS","Restaurant",2,43.6539236,-79.377614,100
"10221708","SECOND CUP","Restaurant",1,43.7123631,-79.3643084,98
"10221751","HASTY MARKET","Food Take Out",2,43.6616132,-79.380456,89
"10221815","SHOPPERS DRUG MART","Food Store (Convenience / Variety)",1,43.6666625,-79.4050747,100
"10221819","OMID RESTAURANT","Restaurant",2,43.7069859,-79.2681482,100
"10221821","DOWNSVIEW RESTAURANT","Restaurant",2,43.732622,-79.4834346,100
"10221874","DOLLARAMA","Food Store (Convenience / Variety)",1,43.7509726,-79.2762254,100
"10221903","THE CROISSANT TREE","Food Take Out",2,43.6452762,-79.3804855,100
"10221912","GLO-HAR CONVENIENCE","Food Store (Convenience / Variety)",1,43.7665802,-79.2814253,99
"10221960","ASA SUSHI RESTAURANT","Restaurant",3,43.6498072,-79.4848618,100
"10222028","ON THE RUN QUEENSWAY ESSO","Food Store (Convenience / Variety)",1,43.6299788,-79.4873405,82
"10222063","JOE'S HOT DOG CART","Hot Dog Cart",2,43.7415018,-79.5837615,100
"10222089","CONGEE TIME","Restaurant",3,43.7851983,-79.4166771,91
"10222093","STAPLE BUSINESS DEPOT","Food Store (Convenience / Variety)",1,43.7685234,-79.4123633,100
"10222113","HERO CERTIFIED BURGERS","Food Court Vendor",2,43.6449342,-79.5221936,100
"10222115","MY DOLLAR & VARIETY","Food Store (Convenience / Variety)",1,43.6154307,-79.4886032,100
"10222129","GRENADIER CONVENIENCE","Food Store (Convenience / Variety)",1,43.6295525,-79.4757411,84
"10222170","ZEE CONVENIENCE","Food Store (Convenience / Variety)",1,43.7052636,-79.3415842,100
"10222208","ENCORE FOOD WITH ELEGANCE","Food Caterer",3,43.7818617,-79.4706345,100
"10222229","SUBWAY SANDWICHES AND SALADS","Restaurant",2,43.7732602,-79.4426398,100
"10222276","TRIPLE Z","Restaurant",3,43.6655438,-79.4665329,100
"10222355","COFFEE TIME / HASTY MARKET","Food Take Out",2,43.6968288,-79.3716881,100
"10222372","PASTACCERIA","Food Court Vendor",3,43.6599046,-79.3886482,100
"10222470","MELLACI VARIETY SHOP","Food Store (Convenience / Variety)",1,43.6630371,-79.43665,100
"10222572","SUNSHINE SPOT GRILL","Restaurant",3,43.7700899,-79.3747362,98
"10222574","KOSHER COUNTRY STYLE","Restaurant",3,43.7742392,-79.5014316,100
"10222575","WIMPY'S DINER","Restaurant",3,43.7555558,-79.4389475,100
"10222641","MEGA WRAPS","Food Take Out",2,43.6591987,-79.3868486,100
"10222653","OVER EASY","Restaurant",2,43.6481829,-79.3774104,100
"10222699","I.D.A.","Restaurant",1,43.6982514,-79.3965755,100
"10222711","MADE IN JAPAN TERIYAKI EXPERIENCE","Food Court Vendor",3,43.6599046,-79.3886482,100
"10222747","LUCKY DRAGON RESTAURANT","Restaurant",3,43.7148878,-79.4797443,100
"10222750","SUPER VARIETY & DRY CLEANERS","Food Store (Convenience / Variety)",2,43.6372822,-79.4362721,100
"10222751","KING MINI MART","Food Store (Convenience / Variety)",1,43.6387884,-79.4286102,100
"10222820","QUEEN EAST MILK","Food Store (Convenience / Variety)",1,43.6661254,-79.3186432,100
"10222832","CARD AND CONVENIENCE","Food Store (Convenience / Variety)",1,43.6645156,-79.3872302,100
"10222878","NANDO'S PLACE","Restaurant",3,43.7602394,-79.5652605,97
"10222894","VI VETHA BISTRO","Restaurant",3,43.6736249,-79.2821106,100
"10222982","HAPPY TIME RESTAURANT","Restaurant",2,43.6413322,-79.433487,100
"10223101","JAMAICA JAMAICA JERK","Restaurant",3,43.6692736,-79.4818855,100
"10223119","PHIPPS","Restaurant",3,43.7041964,-79.4111299,97
"10223167","DUKE OF SOMERSET","Restaurant",3,43.6573478,-79.3843539,100
"10223213","WAL-MART","Supermarket",3,43.7271887,-79.2930079,100
"10223230","TODAY'S MENU","Food Caterer",3,43.680661,-79.3112207,100
"10223243","MCDONALD'S","Restaurant",2,43.7271887,-79.2930079,85
"10223264","ICHIBAN FISH HOUSE","Restaurant",3,43.7645208,-79.4104833,90
"10223362","CHEF OF INDIA","Restaurant",3,43.7070793,-79.3973889,100
"10223370","SUBWAY","Restaurant",2,43.6829596,-79.4185276,100
"10223402","GUSTITOS DE MI TIERRA","Supermarket",1,43.743037,-79.5140998,100
"10223423","PETRO CANADA","Food Store (Convenience / Variety)",1,43.7048884,-79.3494591,100
"10223471","SRI RAAM TAKE OUT & CATERING","Food Take Out",3,43.7916061,-79.2488799,91
"10223503","PIZZA PIZZA","Restaurant",2,43.7276691,-79.4797688,100
"10223528","EARTH FRESH FOOD CORP.","Food Depot",2,43.5957855,-79.5424195,100
"10223529","STARBUCKS","Restaurant",1,43.6447769,-79.3983224,100
"10223559","ESSO","Food Store (Convenience / Variety)",1,43.7072035,-79.3441992,100
"10223562","TRINITY SUPERMARKET","Supermarket",2,43.6655358,-79.3520763,84
"10223590","YOU AND ME SMOKE AND GIFT SHOP","Food Store (Convenience / Variety)",1,43.6672455,-79.3125205,100
"10223607","THE FRIENDLY GREEK","Restaurant",3,43.758921,-79.4100436,100
"10223698","JOLLYTOPS","Food Take Out",3,43.7374462,-79.4350748,73
"10223699","ARIS' GRILL","Restaurant",3,43.6500745,-79.4503521,100
"10223789","MOONDOO CHINESE GARDEN","Restaurant",3,43.6788536,-79.4739011,100
"10223839","MCDONALD'S","Restaurant",2,43.7081466,-79.5146401,100
"10223866","NATIONAL BAKERY & PASTRY","Bakery",2,43.6545823,-79.4218868,100
"10223895","2 4 1 PIZZA","Food Take Out",2,43.6977873,-79.5434316,100
"10223897","TIM HORTONS ON THE RUN","Food Take Out",2,43.6969992,-79.5464025,100
"10223926","ERVANARIA ANGRA","Food Store (Convenience / Variety)",2,43.6740495,-79.4278844,100
"10223954","THAI EXPRESS","Food Take Out",3,43.648684,-79.3802333,100
"10223965","STAR MILK STORE","Food Store (Convenience / Variety)",1,43.730267,-79.2670732,100
"10224018","KINGSMILL FOODS","Food Processing Plant",2,43.7627353,-79.2800523,100
"10224065","BLOOR-DUNDAS PHARMACY","Food Store (Convenience / Variety)",1,43.6559691,-79.4525963,100
"10224073","DRUXY'S FAMOUS DELI SANDWICHES","Restaurant",2,43.7719348,-79.3668109,99
"10224196","MAMMA'S PIZZA","Restaurant",2,43.700475,-79.4285489,100
"10224205","OJJJ'S VARIETY","Food Take Out",2,43.6604934,-79.4145004,100
"10224212","ROCCO'S PLUM TOMATO","Restaurant",3,43.6302138,-79.4848168,100
"10224222","DESI TASTE","Food Take Out",3,43.7438962,-79.2193708,84
"10224226","MALVERN COMMUNITY BANQUET","Community Kitchen Meal Program",1,43.8078999,-79.2160922,100
"10224258","DIAMOND PIZZA","Food Take Out",2,43.6822411,-79.3287024,100
"10224345","CAFE PALMA","Restaurant",2,43.7686144,-79.4128358,47
"10224359","MUZIK","Restaurant",3,43.6327092,-79.4239856,100
"10224401","FITNESS 365","Refreshment Stand (Stationary)",1,43.6998819,-79.563111,100
"10224497","THE BAGEL STOP","Food Court Vendor",2,43.6568994,-79.4355343,100
"10224534","INDIGO NATURAL","Food Depot",1,43.7520089,-79.2900911,100
"10224560","CASTELLO SPORTS BAR","Restaurant",3,43.6759067,-79.4529492,100
"10224676","KIN KIN BUBBLE TEA","Food Take Out",2,43.7983958,-79.3176511,96
"10224679","KOREAN GRILL HOUSE","Restaurant",3,43.6694326,-79.3865614,100
"10224691","QUEEN'S PASTA","Food Store (Convenience / Variety)",2,43.6177741,-79.4979217,100
"10224752","POPEYE'S CHICKEN & BISCUITS","Restaurant",2,43.7554477,-79.5171791,100
"10224829","CARLTON CONVENIENCE","Food Store (Convenience / Variety)",1,43.6631969,-79.3737042,100
"10224836","DOLLARAMA","Food Store (Convenience / Variety)",1,43.6649796,-79.4457728,100
"10224868","YOULITON BEST CONVENIENCE","Food Store (Convenience / Variety)",1,43.6802506,-79.2912814,100
"10224872","SUN'S MILK","Food Store (Convenience / Variety)",1,43.6803144,-79.2899445,100
"10225035","DHD FOOD PRODUCTS INC.","Food Processing Plant",2,43.6803612,-79.5892042,100
"10225062","ISLAND SPICE","Food Take Out",3,43.7871026,-79.2583544,100
"10225095","DAIRY QUEEN","Restaurant",2,43.624928,-79.5088609,100
"10225109","DA ROSA CAFE AND RESTAURANT","Restaurant",3,43.7068688,-79.4529954,100
"10225168","THE SAVOURY GROUNDS COFFEE","Food Take Out",2,43.6567387,-79.3590156,93
"10225270","RMF FILIPINO FOOD MARKET","Food Store (Convenience / Variety)",2,43.7029544,-79.3973925,100
"10225288","INTERNATIONAL NEWS","Food Store (Convenience / Variety)",1,43.6487733,-79.3726689,100
"10225295","DOUBLE DOUBLE PIZZA AND CHICKEN","Restaurant",2,43.7210056,-79.2369019,100
"10225332","COFFEE TIME DONUTS","Restaurant",2,43.6833666,-79.323603,92
"10225339","CENTRE CAFE","Restaurant",2,43.7688114,-79.4129192,100
"10225443","EMPIRE THEATRES CONCESSION STAND","Food Take Out",2,43.7685234,-79.4123633,100
"10225546","CUMBRAE'S","Butcher Shop",3,43.7067725,-79.3755752,88
"10225617","PIZZAVILLE","Food Take Out",2,43.7041987,-79.2527217,100
"10225625","CAFE MODA","Cafeteria - Public Access",3,43.6466105,-79.4024532,99
"10225707","A & W","Food Court Vendor",2,43.7743445,-79.2535219,100
"10225725","BAR WELLINGTON","Restaurant",3,43.6430719,-79.3992598,100
"10225856","GLADSTONE HOTEL","Restaurant",3,43.6425599,-79.4271173,100
"10226012","TALK OF THE TOWN RESTAURANT & BAR","Restaurant",3,43.694343,-79.3427951,100
"10226042","GO GOURMET","Food Take Out",2,43.6350148,-79.4111826,100
"10226095","HAPPY DAY RESTAURANT","Restaurant",3,43.6576894,-79.4528243,99
"10226138","QUIZNO'S SUB","Restaurant",2,43.645312,-79.3896734,100
"10226190","DOLLARAMA","Food Store (Convenience / Variety)",1,43.6410958,-79.4340832,100
"10226202","ASSEB SPORTS BAR AND RESTAURANT","Restaurant",3,43.6626262,-79.4227262,99
"10226224","GOLDEN WOK CHINESE RESTAURANT","Restaurant",3,43.66002,-79.5831164,94
"10226270","SHOPPERS DRUG MART","Food Store (Convenience / Variety)",1,43.705868,-79.3124711,100
"10226274","WEB FUSHION","Food Store (Convenience / Variety)",1,43.6684594,-79.3749904,100
"10226288","THE SANDWICH BOARD","Restaurant",2,43.6879046,-79.3951127,100
"10226466","LA HACIENDA","Restaurant",3,43.6469181,-79.4061069,100
"10226468","NINO D'AVERSA","Bakery",3,43.7598844,-79.48922,100
"10226530","BALZAC'S COFFEE","Restaurant",2,43.6384972,-79.4195399,100
"10226635","MOXIE'S CLASSIC GRILL","Restaurant",3,43.7743445,-79.2535219,100
"10226723","WONTON CHAI","Restaurant",2,43.7875487,-79.2696197,100
"10226928","JERRY'S FISH & CHIPS RESTAURANT","Restaurant",2,43.7590405,-79.4229481,100
"10227082","MCDONALD'S","Restaurant",2,43.7582024,-79.3134389,100
"10227087","HIGH STREET FISH & CHIPS","Restaurant",3,43.7456606,-79.3254919,100
"10227133","ATHENS PASTERIES","Bakery",2,43.7044464,-79.3529759,100
"10227424","MANITOULIN CRAFTS/HAWBERRY FARMS","Food Take Out",1,43.637196,-79.4100446,100
"10227425","TRACY'S WINE JELLIES","Food Take Out",1,43.637196,-79.4100446,100
"10227426","THE WICKED GOURMET","Food Take Out",1,43.637196,-79.4100446,100
"10227451","ULTIMATE BINGO","Food Take Out",2,43.7075638,-79.4777609,100
"10227695","THE SALVATION ARMY BLOOR CENTRAL","Community Kitchen Meal Program",3,43.6623643,-79.4296706,100
"10227743","RABBA MARKET EXPRESS","Supermarket",3,43.635274,-79.5635518,100
"10227779","PREMIER TUCKSHOP","Food Store (Convenience / Variety)",1,43.7804436,-79.4112835,100
"10227837","SECOND CUP","Restaurant",2,43.6501773,-79.4808611,100
"10227842","SOLY'S GRILLE","Food Court Vendor",2,43.7814153,-79.4161241,92
"10228019","PHILLIPINES VARIETY STORE","Food Store (Convenience / Variety)",1,43.6684335,-79.3717658,100
"10228027","YAU KEE NOODLE HOUSE","Restaurant",2,43.8329707,-79.2658803,100
"10228057","FOX & FIDDLE","Restaurant",3,43.7637747,-79.4885663,99
"10228103","MAMBO LOUNGE","Restaurant",3,43.6764315,-79.3581613,100
"10228140","ROYAL KERALA FOODS","Supermarket",2,43.7427842,-79.3084509,100
"10228372","PIZZAIOLO","Restaurant",2,43.6542975,-79.3910988,98
"10228383","GREAT FOUNTAIN FAST FOOD","Food Court Vendor",3,43.7866071,-79.2760115,98
"10228409","CAVIAR CENTRE","Food Store (Convenience / Variety)",2,43.7622573,-79.3527353,100
"10228424","SKOR CASH & CARRY","Food Depot",1,43.6659798,-79.449754,100
"10228432","OCTOBER CONVENIENCE","Food Store (Convenience / Variety)",1,43.6410468,-79.446982,100
"10228520","MC NIES THE FISH AND CHIP PEOPLE","Restaurant",3,43.6487864,-79.5491585,98
"10228529","ALEXANDROS TAKE OUT","Food Take Out",3,43.6414624,-79.3752064,100
"10228566","LONGO'S","Supermarket",3,43.6472077,-79.3793812,100
"10228610","ALOTA SEAFOOD & GROCERIES","Supermarket",3,43.6495728,-79.4304564,100
"10228616","MIKE & LORI'S NO FRILLS","Supermarket",2,43.7978756,-79.1401811,100
"10228633","C 5 RESTAURANT & LOUNGE","Restaurant",3,43.6684293,-79.3947709,100
"10228682","BEST CONVENIENCE","Food Store (Convenience / Variety)",1,43.6410459,-79.4344611,100
"10228685","PARK HYATT TORONTO KOSHER KITCHEN","Banquet Facility",2,43.6687449,-79.3941655,98
"10228697","ST. LOUIS BAR AND GRILL","Restaurant",2,43.7016164,-79.3974686,98
"10228711","HUMBER RIVER REGIONAL HOSPITAL - RETAIL CAFE","Cafeteria - Public Access",3,43.6548942,-79.3774545,100
"10228779","HANDI FOODS LTD","Food Processing Plant",2,43.7641483,-79.5599159,100
"10229005","STARBUCKS COFFEE CANADA","Restaurant",1,43.7686144,-79.4128358,100
"10229088","ELLA'S UNCLE","Food Take Out",2,43.6510595,-79.4125903,100
"10229172","SECOND CUP","Restaurant",1,43.6697424,-79.3894221,100
"10229225","EST SPORTS BAR","Restaurant",2,43.6616391,-79.4272543,100
"10229275","PHO PHUONG","Restaurant",3,43.6497972,-79.4351144,73
"10229306","ESSO","Food Store (Convenience / Variety)",1,43.7182937,-79.2833494,100
"10229342","SWISS BAKERY & FAST FOOD","Restaurant",3,43.6905966,-79.2917734,91
"10229359","TARTS TREATS & COFFEE","Food Take Out",2,43.776098,-79.34588,100
"10229366","DING DONG PASTRIES AND CAFE","Restaurant",2,43.6543102,-79.3984411,84
"10229399","HARVEY'S & SECOND CUP","Restaurant",2,43.7088313,-79.3135385,100
"10229459","CENTRO RESTAURANT","Restaurant",3,43.7114497,-79.3995315,100
"10229512","EATING NEW CREATIONS","Food Processing Plant",2,43.6909549,-79.5733562,100
"10229524","SHOPPERS DRUG MART","Food Store (Convenience / Variety)",1,43.6402786,-79.5379597,75
"10229576","GRACE PLACE","Restaurant",2,43.6392939,-79.4434418,100
"10229586","SCARLETT WOODS GOLF COURSE","Restaurant",2,43.6842492,-79.4987967,100
"10229614","DISLEY FOOD SERVICES","Food Depot",1,43.7857949,-79.2556822,100
"10229675","DAISY MART","Food Store (Convenience / Variety)",1,43.8087328,-79.3587468,100
"10229689","KARPATY PASTRY & DELI","Food Store (Convenience / Variety)",3,43.5951531,-79.530117,100
"10229795","WASHINGTON PRODUCE","Food Processing Plant",1,43.7666837,-79.5637517,100
"10229802","BENTO NOUVEAU","Food Take Out",2,43.7207247,-79.338816,100
"10229814","TIM HORTONS","Restaurant",2,43.7565646,-79.5174778,100
"10229880","KING'S PALACE","Food Take Out",3,43.7496488,-79.4779516,91
"10229889","VILLA RESTAURANT","Restaurant",3,43.6504962,-79.4786263,100
"10229964","TOV-LI PIZZA & FALAFEL","Restaurant",2,43.7292042,-79.431883,100
"10230100","LEMONGRASS THAI RESTAURANT","Restaurant",3,43.7343404,-79.5602387,100
"10230146","LUCKY LOTTO AND MINI MART","Food Store (Convenience / Variety)",1,43.6408417,-79.4358244,100
"10230178","XIN JIANG BARBECUE RESTAURANT","Restaurant",3,43.8043084,-79.3312541,99
"10230181","SOUTH ST. BURGERS CO. NEW YORK FRIES","Restaurant",2,43.7103779,-79.3634184,100
"10230310","MR. SOUVLAKI","Food Take Out",3,43.6590858,-79.3914771,100
"10230318","LATIN FIESTA RESTAURANT","Restaurant",3,43.6793845,-79.4373951,100
"10230375","SPORTS CAFE CHAMPIONS","Restaurant",3,43.7375352,-79.2433167,99
"10230379","DON VALLEY JR HIGH SCHOOL CAFETERIA","Secondary School Food Services",2,43.7901226,-79.3541155,100
"10230387","CHARLOO'S WEST INDIAN FOODS","Supermarket",1,43.7310163,-79.3054141,100
"10230432","TAM O'SHANTER GOLF COURSE","Restaurant",2,43.790239,-79.3021888,100
"10230445","QUEEN BARGAIN MART","Food Store (Convenience / Variety)",1,43.6405692,-79.4367888,100
"10230451","PIZZA PIZZA","Restaurant",2,43.6796256,-79.435691,99
"10230474","COM TAM THOIDAI PHO TIME","Restaurant",3,43.7405848,-79.5134735,100
"10230481","POPEYE'S CHICKEN & BISCUITS","Food Take Out",2,43.6969787,-79.4436846,81
"10230564","M & M MEAT SHOPS","Food Store (Convenience / Variety)",1,43.7509726,-79.2762254,100
"10230603","TIMOTHY'S WORLD COFFEE","Restaurant",2,43.635274,-79.5635518,100
"10230619","HOMETOWN KOREAN RESTAURANT","Restaurant",3,43.6448255,-79.5323862,100
"10230709","CUPPS COFFEE HOUSE","Restaurant",2,43.688986,-79.5887728,100
"10230727","STEVAG RESTAURANT & BAR","Restaurant",3,43.7486005,-79.5183691,100
"10230781","TAPPO WINE BAR & RESTAURANT","Restaurant",3,43.6507179,-79.3580246,92
"10230818","NUTRITION HOUSE","Food Store (Convenience / Variety)",1,43.7620338,-79.4109556,100
"10230836","DOLCE GELATO","Restaurant",2,43.6551152,-79.4175559,100
"10230934","MOGA'S PIZZA","Food Take Out",2,43.7362672,-79.5628589,100
"10230985","SUSHI AND BENTO","Restaurant",3,43.6444868,-79.3997565,86
"10230987","INDIA PALACE","Restaurant",3,43.6502881,-79.3890133,88
"10231048","ASIAN GOURMET","Food Court Vendor",2,43.7582453,-79.2264893,93
"10231068","SHAAREI SHOMAYIM CONGREGATION","Banquet Facility",2,43.7124249,-79.4277834,74
"10231090","CREPE A GOGO","Restaurant",2,43.671967,-79.3879187,99
"10231121","SUSHI D","Restaurant",3,43.6550503,-79.4170275,100
"10231128","CHINA OCEAN RESTAURANT","Restaurant",3,43.6602347,-79.4332069,92
"10231168","MATAX EXPRESS LTD.","Food Depot",1,43.7554047,-79.5240108,92
"10231355","SUSHI TIME","Restaurant",3,43.6495843,-79.3916991,87
"10231375","PUMPERNICKEL'S","Food Court Vendor",2,43.6599046,-79.3886482,70
"10231396","SUPER ZAMANI","Supermarket",3,43.7917829,-79.4185195,64
"10231398","ISLAND FOODS","Restaurant",3,43.7459197,-79.3463013,100
"10231464","SUBWAY","Restaurant",2,43.6709964,-79.2954771,100
"10231498","JOHN'S RESTAURANT","Restaurant",2,43.6574744,-79.4001016,100
"10231630","THAI ISLAND","Food Take Out",3,43.6467685,-79.3824902,69
"10231850","RUSTICO FINE FOOD","Cafeteria - Public Access",2,43.7099475,-79.4715408,100
"10232005","QUEEN SUPERMARKET","Food Store (Convenience / Variety)",2,43.640458,-79.4371768,100
"10232060","341 PIZZA & WINGS","Food Take Out",2,43.7635251,-79.4993575,91
"10232093","RICHTREE MARKET RESTAURANT","Restaurant",3,43.6613558,-79.3831089,100
"10232100","SUBWAY","Restaurant",2,43.697749,-79.5026144,100
"10232131","CULTURES FRESH FOOD RESTAURANT","Restaurant",2,43.780291,-79.41597,100
"10232387","CHARMY FISH AND CHIPS","Restaurant",2,43.7147916,-79.3052909,100
"10232442","THE CORNER SMOKE AND GIFT","Food Store (Convenience / Variety)",1,43.6926192,-79.3340615,100
"10232468","C'EST BON CHINESE SZECHUAN CUISINE","Restaurant",3,43.7035999,-79.3978803,98
"10232728","KITIMAI TEA & COFFEE INC.","Food Processing Plant",1,43.7677121,-79.4742899,86
"10232732","M&M MEAT SHOPS","Food Take Out",1,43.7452189,-79.3259559,100
"10232742","THE GOLDEN GATE RESTAURANT","Restaurant",3,43.7238192,-79.5596964,92
"10232746","YORK WEST ACTIVE LIVING CENTRE","Banquet Facility",2,43.700692,-79.515675,100
"10232749","JOE'S PASTIZZI PLUS","Restaurant",2,43.6456364,-79.5319829,100
"10232797","RICHMAN'S KOSHER BAKERY","Bakery",2,43.7470638,-79.4363316,100
"10232801","FRESHWEST GRILL","Food Take Out",3,43.6467685,-79.3824902,100
"10232806","QUESADA MEXICAN GRILL","Restaurant",3,43.6500655,-79.37462,100
"10232925","CAFE VICTORIA","Restaurant",3,43.6496589,-79.376841,100
"10232975","NARAINE'S BAKERY","Bakery",2,43.7420092,-79.2612029,100
"10233026","PLAY CAFE & BAR","Restaurant",2,43.6245841,-79.511264,100
"10233086","SHOPPERS DRUG MART","Food Store (Convenience / Variety)",1,43.8056419,-79.3853437,100
"10233138","EVERYTHING FOR A DOLLAR STORE","Food Store (Convenience / Variety)",1,43.6709747,-79.4678668,100
"10233163","WEEZIE'S","Restaurant",3,43.6534221,-79.362299,94
"10233231","MAMA'S PIZZA","Food Take Out",2,43.7640685,-79.4113888,100
"10233242","JASON'S COFFEE SHOP","Restaurant",2,43.6403872,-79.4380905,100
"10233249","PIERRE LA ORTE MIDDLE SCHOOL","Secondary School Food Services",3,43.7246458,-79.4910883,100
"10233333","MYKONOS MEDITERRANEAN GRILL","Restaurant",2,43.6743448,-79.3880994,100
"10233382","PHO ST CLAIR","Restaurant",3,43.6808764,-79.4293222,100
"10233388","DELI BREAK","Restaurant",3,43.7551251,-79.4673276,100
"10233411","QUIZNO'S SUB","Restaurant",2,43.7989515,-79.195722,93
"10233427","CAN CEY RESTAURANT","Restaurant",3,43.7371998,-79.2443286,100
"10233444","HOME DEPOT: HARVEY'S/SECOND CUP","Restaurant",2,43.6157742,-79.5540167,100
"10233457","VARIETY & VIDEO 99","Food Store (Convenience / Variety)",1,43.655738,-79.5647802,100
"10233680","MARINA EXPORT & IMPORT INC.","Food Depot",1,43.749131,-79.2890736,100
"10233710","STARBUCKS COFFEE CO","Restaurant",2,43.7579661,-79.4097235,100
"10233721","HUMBER VALLEY GOLF COURSE","Restaurant",2,43.7270966,-79.5457025,82
"10233727","BEYOND FOOD","Restaurant",3,43.6530536,-79.3662621,100
"10233736","TIM HORTONS","Food Take Out",2,43.7231125,-79.456718,100
"10233777","SSIMPRAGA (CART #4172)","Hot Dog Cart",1,43.6555617,-79.3884353,100
"10233780","PIAZZA MANNA","Restaurant",2,43.6446094,-79.3860066,100
"10233802","KFC/TACO BELL","Restaurant",2,43.7983958,-79.3176511,100
"10233848","CLUB V","Restaurant",2,43.6711045,-79.3917374,100
"10233901","ALMIRANTE SPORTS BAR","Restaurant",2,43.6744981,-79.4594653,100
"10233921","WHAT'S UP DOGS","Hot Dog Cart",2,43.6706733,-79.4707594,100
"10233929","KEDIJA GROCERY STORE","Food Store (Convenience / Variety)",1,43.6999424,-79.5179842,100
"10233990","SWEET ROSIE'S","Restaurant",2,43.7745568,-79.3244079,100
"10234239","IDEAL COFFEE","Restaurant",2,43.6482761,-79.420381,100
"10234248","ALIO RESTAURANT AND WINE BAR","Restaurant",2,43.6557304,-79.3841665,93
"10234334","HOT DOG CART #4443","Hot Dog Cart",1,43.6560942,-79.3814843,95
"10234391","PALAIS ROYALE","Banquet Facility",3,43.6367005,-79.4471754,100
"10234492","GABBY'S","Restaurant",3,43.6440584,-79.4480389,100
"10234526","ON THE GO","Food Take Out",2,43.7727513,-79.4473894,100
"10234625","BETH JACOB SYNAGOGUE","Banquet Facility",2,43.762339,-79.4590699,100
"10234641","THAI CHEF CUISINE","Restaurant",3,43.64618,-79.4488652,100
"10234699","WEST MALL VARIETY","Food Store (Convenience / Variety)",1,43.6446062,-79.5673156,100
"10234771","PIZZA RUSTICA","Restaurant",2,43.6452092,-79.3897256,100
"10234846","SUNRISE GRILL & CREPE","Restaurant",3,43.6513266,-79.4509782,100
"10234911","STARBUCKS COFFEE","Restaurant",2,43.7104289,-79.3631773,100
"10234927","VESTA LUNCH","Restaurant",3,43.6731574,-79.4142999,68
"10234947","WOODBINE JR. HIGH SCHOOL CAFETERIA","Secondary School Food Services",2,43.7822812,-79.3487455,100
"10235027","COFFEE TIME DONUTS","Restaurant",2,43.7417829,-79.5930287,100
"10235081","DOLLARAMA","Food Store (Convenience / Variety)",1,43.7420185,-79.5910764,100
"10235093","NICK'S PIZZA BAR","Restaurant",2,43.6381223,-79.4314335,99
"10235096","THE CROWN & TIGER","Restaurant",3,43.6568029,-79.4067572,100
"10235116","DINO'S NO FRILLS","Supermarket",2,43.7308529,-79.4189125,100
"10235131","LICKS HOMEBURGER & ICE CREAM","Restaurant",2,43.7838953,-79.2530966,100
"10235144","Z BAR & GRILLE","Restaurant",3,43.6909045,-79.4712402,100
"10235147","DOLLARAMA","Food Store (Convenience / Variety)",1,43.715593,-79.5551288,100
"10235148","SHOPPERS DRUG MART","Food Store (Convenience / Variety)",1,43.7119787,-79.5652034,100
"10235149","THE QUEENSWAY ROTISSERIE & GRILL","Restaurant",3,43.6163632,-79.5462631,100
"10235204","BIG BOSS BURRITO","Cocktail Bar / Beverage Room",2,43.6762931,-79.4498895,100
"10235216","ESSO ON THE RUN","Food Store (Convenience / Variety)",1,43.7161728,-79.5552094,100
"10235222","REXDALE ALLIANCE CHURCH","Food Bank",1,43.7268633,-79.5602187,100
"10235236","VINAYAKA CONVENIENCE & VARIETY STORE","Food Store (Convenience / Variety)",1,43.702747,-79.5039276,100
"10235272","DRIFTWOOD FISH & CHIPS","Food Take Out",2,43.7671465,-79.5153038,84
"10237234","ESSO TIGER EXPRESS","Food Store (Convenience / Variety)",1,43.7096383,-79.5057409,100
"10237250","SHOPPERS DRUG MART","Food Store (Convenience / Variety)",1,43.693446,-79.5571563,100
"10237329","DOLLAR GUYS","Food Store (Convenience / Variety)",1,43.6977873,-79.5434316,100
"10237433","MONTANA'S COOKHOUSE","Restaurant",3,43.6868851,-79.5861703,100
"10237560","LESTER B. PEARSON COLLEGIATE RESTAURANT","Restaurant",2,43.8030975,-79.2259526,97
"10237619","SUBWAY","Restaurant",2,43.6530795,-79.5725189,100
"10237666","HASTY MARKET","Food Store (Convenience / Variety)",1,43.7376763,-79.2181369,100
"10237690","LESLIEVILLE CHEESE MARKET","Food Take Out",2,43.6604869,-79.3422575,100
"10237695","MERCURY ESPRESSO BAR","Restaurant",1,43.660765,-79.341337,100
"10237703","TIMOTHY'S WORLD COFFEE","Restaurant",1,43.6558405,-79.3835375,100
"10237706","SUBA","Restaurant",2,43.657833,-79.4009503,100
"10237729","DUNDAS PORTUGUESE","Bakery",2,43.6497445,-79.4318492,100
"10237731","A CARAVELA","Restaurant",2,43.649818,-79.4326085,93
"10237749","DRUXY'S FAMOUS DELI SANDWICHES","Food Take Out",2,43.7435315,-79.40651,100
"10237915","STARBUCKS COFFEE CO","Restaurant",2,43.780291,-79.41597,100
"10237935","FRANGIPANE PATISSERIE","Bakery",2,43.6749646,-79.405548,100
"10238048","SAMBUCAS ON CHURCH","Restaurant",3,43.6651339,-79.3805417,100
"10238050","BAR COMUNALE","Restaurant",1,43.7521845,-79.5419383,100
"10238098","SWAG SHACK / CHICKEN CHICKEN / PIZZA PIZZA","Food Take Out",2,43.630392,-79.4147252,100
"10238164","DOLLARAMA","Food Store (Convenience / Variety)",1,43.660489,-79.384447,100
"10238236","ROYAL PAAN","Ice Cream / Yogurt Vendors",2,43.7382514,-79.5659369,100
"10238366","KIMONO JAPANESE GRILL","Restaurant",3,43.7041845,-79.4100306,83
"10238367","SUBWAY","Restaurant",2,43.6570716,-79.4054395,100
"10238394","CALDENSE BAKERY","Restaurant",3,43.6518214,-79.4084812,100
"10238540","ROCCO'S PLUM TOMATO","Restaurant",3,43.6349569,-79.5194369,67
"10238550","KANESH MARKET","Food Store (Convenience / Variety)",1,43.6876692,-79.4912388,100
"10238551","BARGAIN STOP","Food Store (Convenience / Variety)",1,43.7004968,-79.5177695,77
"10238552","WESTON LAUNDROMAT CAFE","Food Store (Convenience / Variety)",1,43.7019722,-79.5226893,100
"10238585","CHILANGOTACO","Restaurant",3,43.7511732,-79.5527356,100
"10238642","VELVET","Restaurant",2,43.6608091,-79.3415423,100
"10238770","SOMA CHOCOLATE","Food Take Out",2,43.6507179,-79.3580246,100
"10239031","JIAN'S FRUIT MARKET","Food Store (Convenience / Variety)",1,43.6137594,-79.4895184,100
"10239120","BEACONSFIELD (MOLSON BANK)","Restaurant",3,43.6430856,-79.4249097,100
"10239236","PHO ASIA 21","Restaurant",3,43.6389532,-79.427805,100
"10239257","JADE BBQ HOUSE","Food Take Out",3,43.7993396,-79.3066474,90
"10239356","DEJEAN'S CUISINE","Food Take Out",3,43.7689209,-79.1862347,100
"10239381","PERIDOT","Restaurant",3,43.6705617,-79.3847385,97
"10239414","CROWN MART","Food Store (Convenience / Variety)",1,43.6568522,-79.3754087,100
"10239415","GLOBE BISTRO","Restaurant",3,43.6764425,-79.3580953,83
"10239660","BAGEL TIME","Restaurant",2,43.6596633,-79.3823534,100
"10239689","ZENA'S DINER","Restaurant",2,43.7362441,-79.2498943,100
"10239798","EITELBACH","Food Take Out",1,43.6487309,-79.3837591,100
"10239891","PITA PIT","Restaurant",2,43.7729272,-79.4932405,100
"10239986","TIM HORTON'S","Food Take Out",2,43.7757692,-79.3473217,100
"10240035","ESSO","Food Store (Convenience / Variety)",1,43.6541983,-79.3393463,100
"10240178","FOOD FOR LIFE","Supermarket",2,43.6516474,-79.4746503,100
"10240189","BIG G 2 4 1 JERK CHICKEN","Food Take Out",3,43.7520167,-79.599141,78
"10240225","LETTIERI ESPRESSO BAR","Restaurant",2,43.671922,-79.3955283,100
"10240253","CAMROS ORGANIC FOODS","Food Take Out",2,43.6695258,-79.3855113,88
"10240382","COM TAM DAO VIEN PEACH GARDEN","Restaurant",3,43.6687987,-79.3375194,97
"10240484","CNE CASINO BAR","Food Take Out",1,43.637196,-79.4100446,100
"10240508","SOBEYS","Supermarket",2,43.7064689,-79.3894207,100
"10240513","FAMOUS WOK","Food Court Vendor",3,43.6126518,-79.5559716,100
"10240542","ISLAND BAKERY","Restaurant",3,43.7443746,-79.2163568,97
"10240552","BANDSHELL WAFFLE","Food Take Out",2,43.637196,-79.4100446,100
"10240583","TIM HORTONS #2967","Food Take Out",2,43.6568994,-79.4355343,95
"10240608","CLASSIC ITALIAN STYLE PIZZA #1","Food Take Out",2,43.637196,-79.4100446,100
"10240752","JOE'S CONVENIENCE STORE","Food Store (Convenience / Variety)",1,43.6701696,-79.4290244,100
"10240983","FOUR SEASONS CENTRE FOR THE PERFORMING ARTS","Restaurant",2,43.6507144,-79.3858595,100
"10241114","CINEMA","Restaurant",3,43.6377565,-79.4231789,100
"10241115","PERFECT CUP","Food Store (Convenience / Variety)",2,43.7569215,-79.5201468,100
"10241124","FOOD GALORE GROCERY","Food Store (Convenience / Variety)",1,43.7526393,-79.4886908,100
"10241147","DOMINO'S PIZZA","Food Take Out",2,43.6664865,-79.3745448,83
"10241151","GATEWAY NEWSTANDS","Food Store (Convenience / Variety)",1,43.6599046,-79.3886482,100
"10241536","SUSHI DRAGON","Restaurant",3,43.6905192,-79.5761029,100
"10241642","GOOD FOR YOU DESSERTS","Bakery",2,43.7700405,-79.2791053,100
"10242111","GMI VARIETY","Food Store (Convenience / Variety)",1,43.6773063,-79.4720099,100
"10242343","NEW OCEAN SUPERMARKET","Supermarket",2,43.8217621,-79.2469865,65
"10242395","OSC - VALLEY MARKET PLACE","Restaurant",2,43.716465,-79.338713,100
"10242398","THE FITNESS INSTITUTE","Restaurant",2,43.7745498,-79.3287534,100
"10242604","AAVS SUPERSTORE","Supermarket",2,43.7965339,-79.3167447,100
"10242672","CORA'S BREAKFAST & LUNCH","Restaurant",2,43.7873477,-79.4690267,100
"10242895","SECOND CUP","Restaurant",2,43.7480346,-79.384196,98
"10242939","GRAND BARGAIN JUNCTION GARDENS POSTAL OUTLET","Food Store (Convenience / Variety)",1,43.6655515,-79.4675162,100
"10242993","NOUVO CARNEVALE DI VENEZIA","Food Take Out",2,43.7120408,-79.3994929,100
"10243000","ARAZ BAKERY","Food Store (Convenience / Variety)",1,43.7310163,-79.3054141,100
"10243011","THE BERKELEY CAFE","Restaurant",2,43.6549511,-79.3654774,100
"10243019","YARLTON","Supermarket",2,43.7988682,-79.3131037,100
"10243026","MADE IN JAPAN TERIYAKE EXPERIENCE","Restaurant",2,43.7989515,-79.195722,100
"10243108","GINGER","Restaurant",3,43.6646185,-79.3674185,55
"10243129","FOOD STUDIO","Restaurant",3,43.6684293,-79.3947709,100
"10243258","SANTA CRUZ CHURCH","Church Banquet Facility",2,43.6461871,-79.423531,100
"10243291","POLITICA","Restaurant",3,43.6432487,-79.4122481,100
"10243445","VALLEY FARM PRODUCE","Food Store (Convenience / Variety)",1,43.6779194,-79.3500214,99
"10243452","SHANG HAI FOOD","Food Processing Plant",2,43.7912982,-79.3134681,100
"10243556","NANDO'S","Restaurant",3,43.7143881,-79.3606383,100
"10243581","WIMPY'S DINER","Restaurant",3,43.6888866,-79.2692479,100
"10243588","FRESHLY SQUEEZED","Food Take Out",1,43.6472077,-79.3793812,100
"10243591","ORIENTAL HARVEST","Supermarket",3,43.6536031,-79.3985673,100
"10244579","FREE TOPPING PIZZA","Food Take Out",2,43.6970077,-79.3289805,100
"10244653","CALYPSO PALACE","Restaurant",3,43.7521656,-79.5269044,100
"10244661","WINDIES RESTAURANT & SPORTS BAR","Restaurant",3,43.758327,-79.2340587,100
"10244759","BENTO NOUVEAU","Food Depot",1,43.7334662,-79.2466909,85
"10245283","STARBUCKS COFFEE","Restaurant",2,43.660637,-79.3424352,100
"10245430","STARBUCKS","Restaurant",2,43.7700866,-79.1843677,100
"10245433","A TASTE OF LEBANON","Food Take Out",3,43.7496488,-79.4779516,100
"10245442","PITA HOUSE","Food Take Out",3,43.7496488,-79.4779516,71
"10245519","DUKE OF GLOUCESTER","Restaurant",3,43.6679798,-79.3858066,95
"10245581","MR. PATTY BAKERY OUTLET & PASTRY SHOP","Bakery",2,43.7658635,-79.1910852,100
"10245610","JACK ASTOR'S","Restaurant",3,43.6706237,-79.3863045,92
"10245776","REAL CANADIAN SUPERSTORE","Supermarket",3,43.7083782,-79.5338371,91
"10245839","ST. LOUIS BAR & GRILL","Restaurant",3,43.6404259,-79.3904609,99
"10245844","THE THIRSTY PENGUIN","Restaurant",3,43.7742155,-79.5142816,95
"10245863","BETH RADOM","Food Caterer",2,43.7522366,-79.4390347,100
"10245946","HARRISON FOODS ICE CREAM","Food Take Out",2,43.637196,-79.4100446,100
"10245948","THE NUT LADY","Food Take Out",1,43.6350148,-79.4111826,100
"10245956","FRESH NOW MINI DONUTS","Food Take Out",2,43.637196,-79.4100446,100
"10245957","SOFT SERVE / TASTEFULLY TWISTED","Food Take Out",2,43.637196,-79.4100446,93
"10245958","COFFEE STAND","Food Take Out",2,43.637196,-79.4100446,100
"10245960","CANDY TIME FORTRESS","Food Take Out",1,43.637196,-79.4100446,100
"10246017","PIZZA NOVA","Food Take Out",2,43.637196,-79.4100446,100
"10246078","OKTOBERFEST BEER NUTS","Food Take Out",1,43.6350148,-79.4111826,100
"10246095","CARMICHAELS","Food Take Out",2,43.6350148,-79.4111826,100
"10246138","FRESH CUT FRIES","Food Take Out",2,43.637196,-79.4100446,100
"10246223","LICKS","Food Take Out",3,43.637196,-79.4100446,100
"10246228","GOURMET lOLLIPOPS","Food Take Out",1,43.637196,-79.4100446,100
"10246274","HOT WOK","Restaurant",3,43.7694703,-79.2819927,100
"10246285","G. K. CONVENIENCE","Food Store (Convenience / Variety)",1,43.7210171,-79.2370151,100
"10246288","NICE & EASY RESTAURANT","Restaurant",3,43.7554155,-79.5240152,100
"10246329","DEB'S DIPS","Food Take Out",1,43.637196,-79.4100446,100
"10246461","VICTOR","Restaurant",3,43.6456016,-79.3909567,100
"10246462","JOE MAMAS BAR & GRILL","Restaurant",3,43.6463089,-79.3906864,100
"10246468","VERONA BAR & GRILL","Restaurant",3,43.6461465,-79.3912858,100
"10246470","DHABA","Restaurant",3,43.6463517,-79.3904852,71
"10246476","MANCHU WOK","Food Court Vendor",3,43.6590858,-79.3914771,100
"10246519","RANDY'S SPORTS BAR","Restaurant",3,43.7760917,-79.4940765,100
"10246675","THE SWEET SPOT #1","Food Take Out",2,43.637196,-79.4100446,100
"10246677","CNE CASINO COURTYARD","Cocktail Bar / Beverage Room",3,43.637196,-79.4100446,100
"10246834","NEW COLLEGE","Secondary School Food Services",3,43.6614967,-79.4009761,90
"10246837","SID'S SOUTHSIDE CAFE","Commissary",3,43.6625232,-79.3986749,100
"10246979","JOHN ROBARTS RESEARCH LIBRARY","Secondary School Food Services",3,43.664288,-79.3999366,97
"10247022","FRESH VALUE MARKET","Supermarket",3,43.7167357,-79.5552206,100
"10247212","SOBEYS EXPRESS","Supermarket",3,43.6392865,-79.3808801,100
"10247392","NOODLE KING","Restaurant",3,43.719541,-79.4567815,78
"10247393","BASKIN-ROBBINS","Ice Cream / Yogurt Vendors",2,43.7981516,-79.3697397,100
"10247422","ARIS PLACE RESTAURANT","Restaurant",3,43.6460487,-79.4488055,100
"10247455","MATAGALI RESTAURANT","Restaurant",3,43.6571094,-79.3849018,100
"10247457","SHIRIN MAHAL BAKERY & SWEETS","Food Take Out",2,43.8329707,-79.2658803,100
"10247459","THREE STAR FOOD GROCERY & RESTAURANT","Restaurant",3,43.6439584,-79.4088855,100
"10247464","STARBUCKS COFFEE COMPANY","Restaurant",2,43.6524769,-79.4700634,100
"10247479","FRESH ON BLOOR","Restaurant",3,43.6667469,-79.4034134,100
"10247837","GOSSIP","Restaurant",3,43.6314669,-79.4220271,100
"10247839","COFFEE TIME","Restaurant",2,43.7878222,-79.2672533,100
"10247888","BEAVER CAFE","Restaurant",3,43.6427534,-79.4261574,100
"10247898","J & W  FOODS INC","Butcher Shop",1,43.790412,-79.2698749,100
"10247904","LEIN DELICATESSEN","Food Take Out",3,43.637196,-79.4100446,100
"10247910","LEIN DELICATESSEN","Food Take Out",3,43.637196,-79.4100446,100
"10247922","SIMBA'S FIRST CLASS BAKERY","Bakery",2,43.7536692,-79.2543125,55
"10247945","WING MACHINE","Food Court Vendor",3,43.6591987,-79.3868486,100
"10247990","SADO SUSHI","Restaurant",3,43.6996244,-79.4320098,100
"10247993","TIM HORTONS","Restaurant",2,43.6896649,-79.3945909,100
"10247994","GREEN THUMB","Food Store (Convenience / Variety)",1,43.6508461,-79.4782093,73
"10248191","BANAHAW FOODMART","Food Take Out",3,43.7028045,-79.2969281,100
"10248195","BALDINI ON QUEEN","Restaurant",3,43.6613681,-79.3390394,100
"10248314","ZODIAC LOUNGE","Restaurant",2,43.7318423,-79.2695548,81
"10248328","ORANGE ALERT COFFEE RESTAURANT","Restaurant",2,43.6543974,-79.3912803,100
"10248392","TIM HORTONS","Restaurant",2,43.6838818,-79.5648424,100
"10248415","PIZZA HUT","Food Take Out",2,43.7069859,-79.2681482,100
"10248437","SHAWARMA MAX","Restaurant",3,43.765504,-79.4116746,100
"10248464","STUBBE CHOCOLATES","Food Processing Plant",2,43.6716443,-79.4212953,100
"10248700","PIZZA NOVA","Food Take Out",2,43.7765914,-79.2301822,100
"10248830","LOLLICAKES","Bakery",2,43.703111,-79.3878475,100
"10248833","PORTA VIA RISTORANTE","Restaurant",3,43.6638261,-79.5895603,99
"10248839","THE SECOND CUP","Restaurant",1,43.6498409,-79.3910783,100
"10248842","MR. COMBO","Restaurant",3,43.7555547,-79.4378128,99
"10248904","SUBWAY SANDWICHES AND SALADS","Restaurant",2,43.7696238,-79.5494072,98
"10248975","SUNNY MEAT MARKET","Food Store (Convenience / Variety)",2,43.6545153,-79.3985236,100
"10248976","NOVELIS","Food Vending Facility",1,43.6181386,-79.5125948,100
"10248977","THE BERKLEY CHURCH","Banquet Facility",2,43.6551899,-79.3659673,100
"10249044","SUBWAY SANDWICHES","Restaurant",2,43.7193398,-79.5703584,100
"10249045","PIZZA NOVA","Food Take Out",2,43.6264306,-79.5024038,100
"10249080","SUBWAY","Restaurant",2,43.691895,-79.5310706,100
"10249108","WOODBINE CAFE & CATERING","Restaurant",2,43.7113146,-79.5927833,100
"10249153","ARTSCAPE - RETREAT CENTRE","Restaurant",2,43.6129003,-79.3840098,98
"10249251","BOSTON PIZZA","Restaurant",3,43.7620338,-79.4109556,100
"10249271","DAISY MART","Food Store (Convenience / Variety)",1,43.745538,-79.2099548,100
"10249282","TOWN TALK RESTAURANT & BAR","Restaurant",2,43.6919311,-79.439814,100
"10249412","HANA KOREA","Restaurant",3,43.6558244,-79.3937788,100
"10249415","PERO RESTAURANT & LOUNGE","Restaurant",3,43.6627395,-79.4226869,100
"10249432","NEW YORK CAFE","Restaurant",2,43.6760191,-79.3585238,75
"10249440","MY PLACE FISH & CHIPS","Restaurant",2,43.7741921,-79.3223081,100
"10249470","SHOPPERS DRUG MART","Food Store (Convenience / Variety)",1,43.7078063,-79.3898936,100
"10249513","LICK'S","Restaurant",2,43.6176669,-79.5412597,100
"10249568","EGLINTON HILL VARIETY AND DOLLAR STORE","Food Store (Convenience / Variety)",1,43.6908592,-79.4720217,100
"10249620","CAFE SUPREME","Food Court Vendor",2,43.6449342,-79.5221936,100
"10249622","THE VICTORIAN GARDEN TEA ROOM","Restaurant",2,43.6488125,-79.5490431,100
"10249631","BAKERY & RESTAURANT EL QUETAL","Food Take Out",2,43.701385,-79.5107328,100
"10249645","DAIRY MART","Food Store (Convenience / Variety)",1,43.60026,-79.5070733,100
"10249725","JEAN'S VEGETARIAN KITCHEN","Restaurant",3,43.6820016,-79.3307514,100
"10249950","NEW EDEN CHINESE FOOD","Restaurant",3,43.6971798,-79.3290513,100
"10250122","JOE'S PIZZA & WINGS","Food Take Out",2,43.8169498,-79.2107369,100
"10250127","M & B YUMMY ETHIOPIAN VEGETARIAN CUISINE","Restaurant",2,43.6416923,-79.4312439,100
"10250137","QUEEN'S PATISSERIE","Bakery",2,43.8097313,-79.343097,100
"10250148","FRESHII","Food Take Out",2,43.6486714,-79.383778,93
"10250193","CHICO'S PLACE","Restaurant",3,43.7656373,-79.5568793,100
"10250210","MILAGRO RESTAURANT AND CANTINA","Restaurant",3,43.7028824,-79.5165325,100
"10250263","ORIENTAL FOOD MARKET (NY)","Supermarket",3,43.7481641,-79.56117,98
"10250421","CAMPUS CO-OPERATIVE RESIDENCE","Restaurant",3,43.6661118,-79.4010786,94
"10250429","GONOE SUSHI","Restaurant",3,43.7459197,-79.3463013,98
"10250442","BOOM BREAKFAST CO.","Restaurant",2,43.6789782,-79.4386006,100
"10250470","MR BEKER CONVENIENCE","Food Store (Convenience / Variety)",1,43.6906349,-79.4735369,100
"10250493","TIMES WEST INDIAN RESTAURANT","Food Take Out",3,43.7437599,-79.2167627,94
"10250629","JACKS RESTAURANT & BAR","Restaurant",2,43.7431934,-79.283013,100
"10250765","STARBUCKS COFFEE","Restaurant",2,43.6535456,-79.451503,100
"10250770","FRESHLY SQUEEZED","Food Take Out",2,43.6568994,-79.4355343,100
"10250817","ESPRESSO ETC.","Restaurant",2,43.6541554,-79.3929799,96
"10250818","GUSTO PIZZA","Food Take Out",2,43.7835741,-79.2993119,100
"10250900","J.L. TRADING CO. LTD.","Food Depot",1,43.8267283,-79.2517494,100
"10250996","CAFE CONNECTS","Restaurant",2,43.790153,-79.2340847,100
"10251104","CAMPUS CO-OPERATIVE INSTITUTIONAL RESIDENCES","Secondary School Food Services",2,43.6613832,-79.4015498,59
"10251115","DANFORTH FRUIT MART","Supermarket",2,43.6892872,-79.2975924,100
"10251139","BANH MI & CHE CALI","Restaurant",3,43.653645,-79.3985851,53
"10251151","TIM HORTONS","Food Take Out",2,43.6590858,-79.3914771,100
"10251171","QUINCE","Restaurant",3,43.7027904,-79.3976935,100
"10251174","F'COFFEE","Restaurant",2,43.6581873,-79.3523332,100
"10251187","THE WANDERING BEAN (RAWF)","Food Take Out",2,43.6350148,-79.4111826,100
"10251255","PHRMASAVE","Food Store (Convenience / Variety)",1,43.737927,-79.2178628,100
"10251386","BALDEV PAAN","Food Take Out",1,43.6718414,-79.3235818,100
"10251470","STARI GRAD VARIETY","Food Take Out",2,43.641181,-79.5394105,100
"10251472","AFC AJUKER FRIED CHICKEN","Restaurant",3,43.6639946,-79.4167498,93
"10251486","HAPPY BAKERY & PASTRY","Restaurant",3,43.6682393,-79.4412832,46
"10251491","TANG'S MARKET","Food Store (Convenience / Variety)",1,43.6414569,-79.4329133,100
"10251565","COFFEE TIME","Restaurant",2,43.6459711,-79.4098447,100
"10251576","MOMIJI SUSHI BAR & GRILL","Restaurant",3,43.6478122,-79.5087813,94
"10251670","MCKENZIES HIGH PARK","Restaurant",3,43.6529838,-79.4684026,100
"10251728","THE WANDERING BEAN (RAWF)","Food Take Out",2,43.6350148,-79.4111826,100
"10251729","YE OLDE FUDGE POT (RAWF)","Food Take Out",1,43.6350148,-79.4111826,100
"10251732","WOOLWICH DAIRY (RAWF)","Food Take Out",2,43.6350148,-79.4111826,100
"10251751","MILL STREET BREW PUB","Restaurant",3,43.6507179,-79.3580246,100
"10251755","NARAINE'S BAKERY","Bakery",2,43.7521845,-79.5419383,100
"10251789","HARRISON'S ICE CREAM (RAWF-RICOH-WEST, LEVEL 100)","Food Take Out",2,43.6364851,-79.4143322,100
"10251796","NORTHWEST SMOKE AND GIFT","Food Store (Convenience / Variety)",1,43.7390207,-79.5393344,100
"10251821","ESSO ON THE RUN","Food Store (Convenience / Variety)",1,43.6977834,-79.3288709,100
"10251855","FEDNOR-MAPLE ORCHARD FARMS (RAWF)","Food Take Out",2,43.6350148,-79.4111826,100
"10251856","FEDNOR-JOHNSTON CRANBERRY (RAWF)","Food Take Out",2,43.6350148,-79.4111826,100
"10251981","THE ACME BURGER COMPANY","Restaurant",2,43.6259459,-79.502808,82
"10251988","SUBWAY","Restaurant",2,43.6568195,-79.3756464,100
"10252074","AJISEN RAMEN","Restaurant",3,43.771451,-79.4132183,100
"10252140","KIWE KITCHEN","Restaurant",3,43.6443239,-79.400127,73
"10252174","TIM HORTONS","Food Take Out",2,43.7171167,-79.5963342,100
"10252180","THIN BLUE LINE CHEESE BOUTIQUE","Food Take Out",2,43.641784,-79.4471609,100
"10252214","MIKE'S BBQ","Food Take Out",3,43.7875487,-79.2696197,100
"10252292","BANJARA INDIAN CUISINE","Restaurant",3,43.6629019,-79.4218416,77
"10252302","MY BAR &  RESTAURANT","Restaurant",2,43.6681594,-79.3408633,95
"10252317","SANDHURST MINI MART","Food Store (Convenience / Variety)",1,43.8097778,-79.2634782,100
"10252328","CINEPLEX ODEON (TIM HORTONS)","Food Court Vendor",2,43.6228466,-79.5166104,100
"10252414","ALL NATURAL HEALTH FOOD","Food Store (Convenience / Variety)",1,43.619828,-79.5236652,100
"10252416","TIM HORTON'S","Food Take Out",2,43.6467685,-79.3824902,100
"10252417","LETTIERI","Food Take Out",2,43.6467685,-79.3824902,100
"10252418","CHRISTOPHER'S CATERING","Food Caterer",3,43.6272839,-79.4976458,100
"10252425","EVERYTHING FOR A DOLLAR STORE","Food Store (Convenience / Variety)",1,43.7743445,-79.2535219,100
"10252428","SECOND BEER BAR & GRILL","Restaurant",2,43.6955776,-79.4502371,98
"10252471","ICE QUEEN RESTAURANT","Cocktail Bar / Beverage Room",2,43.6396492,-79.4467108,72
"10252494","VICKY'S FISH & CHIPS","Restaurant",3,43.6516964,-79.4512443,100
"10252547","SUPPERWORKS","Food Take Out",2,43.7033296,-79.4129542,100
"10252562","BRICK STREET BREADS INC.","Bakery",2,43.6605574,-79.3424724,73
"10252567","CAROLE'S CHEESECAKE CAKE","Restaurant",2,43.6702788,-79.391561,96
"10252681","THE COMMON","Restaurant",2,43.6526928,-79.4314309,100
"10252727","THE BULK BARN","Food Store (Convenience / Variety)",1,43.6908471,-79.2900763,100
"10252788","KELLY FOOD MART","Food Store (Convenience / Variety)",1,43.68506,-79.3158074,59
"10252802","SHEBA RESTAURANT","Restaurant",3,43.656761,-79.4068615,88
"10252854","100% KOREAN","Restaurant",3,43.7914112,-79.3661401,100
"10252888","FEDNOR-HAWBERRY FARMS (RAWF)","Food Take Out",2,43.6350148,-79.4111826,100
"10252890","FEDNOR-PURVIS BROTHERS FISHERIES (RAWF)","Food Take Out",2,43.6350148,-79.4111826,100
"10252891","FEDNOR-NORTHWEST FUDGE (RAWF)","Food Take Out",2,43.6350148,-79.4111826,100
"10252894","CAVA","Restaurant",3,43.6898789,-79.3948371,100
"10252922","SUBWAY","Restaurant",2,43.6868285,-79.597797,100
"10252947","SUBWAY (RAWF)","Food Take Out",2,43.6350148,-79.4111826,97
"10252949","GRANPA KEN'S BACK BACON (RAWF)","Food Take Out",2,43.6350148,-79.4111826,100
"10252959","ST. LOUIS WINGS BACON NATION  (RAWF)","Food Take Out",2,43.6350148,-79.4111826,92
"10253079","CAN PACIFIC ASIA","Food Store (Convenience / Variety)",1,43.7869274,-79.2740715,100
"10253124","TIM HORTONS","Restaurant",2,43.7348359,-79.5334856,100
"10253137","TATSU'S BREAD","Bakery",2,43.5979527,-79.5180763,98
"10253159","TIKI MING","Food Take Out",3,43.7159577,-79.4454283,78
"10253166","AMADEUS RESTAURANT","Restaurant",3,43.6540231,-79.4019039,100
"10253177","PITA PAVILION","Food Take Out",3,43.7159577,-79.4454283,100
"10253199","SUBWAY","Restaurant",2,43.7469386,-79.2014485,100
"10253253","GLOBAL FISH","Food Take Out",1,43.783814,-79.4751295,100
"10253283","CAFE ARC DE TRIOMPHE","Restaurant",3,43.7834129,-79.4164179,91
"10253287","PETRO CANADA","Food Store (Convenience / Variety)",1,43.6866035,-79.3080488,100
"10253309","CENTENNIAL COLLEGE CAFETERIA","Secondary School Food Services",2,43.6843601,-79.3495172,100
"10253390","SHERIFF'S NO FRILLS #270","Supermarket",2,43.7415018,-79.5837615,100
"10253402","SHAHJALAL GROCER","Supermarket",2,43.6896923,-79.2946168,99
"10253512","MANILA FOODS","Restaurant",3,43.6828789,-79.4198691,90
"10253520","FU YANG SEAFOOD CO LTD","Food Processing Plant",1,43.80971,-79.197521,100
"10253638","THE MEAT ON THE BEACH","Food Take Out",3,43.668567,-79.3071991,100
"10253667","JAVA JOE'S","Restaurant",2,43.6591213,-79.51453,100
"10253721","SUBWAY","Food Court Vendor",2,43.6572234,-79.3878863,100
"10253750","THE COMRADE","Restaurant",2,43.6593761,-79.3479413,100
"10253793","SEARA BAKERY & PASTRY","Bakery",2,43.6816782,-79.4733643,99
"10253837","CARIBBEAN WAVE RESTAURANT","Restaurant",3,43.7989515,-79.195722,100
"10253852","HARRISON'S ICE CREAM (RAWF)","Food Take Out",2,43.6350148,-79.4111826,100
"10253860","FOODS OF THE WORLD (RAWF)","Food Take Out",3,43.6350148,-79.4111826,100
"10253883","DAIRY FARMERS OF CANADA (RAWF)","Food Take Out",2,43.6350148,-79.4111826,100
"10253884","LEMON HEAVEN (RAWF)","Food Take Out",2,43.6350148,-79.4111826,100
"10253914","THE EAGLE TWINS","Restaurant",3,43.6796779,-79.4360282,98
"10253963","BRIMLEY CONVENIENCE","Food Store (Convenience / Variety)",1,43.7875241,-79.2678954,100
"10254044","GATEWAY NEWSTANDS","Food Store (Convenience / Variety)",1,43.6880238,-79.3940614,100
"10254063","YE OLDE FUDGE POT (RAWF)","Food Take Out",2,43.6350148,-79.4111826,100
"10254093","BABOS DONER POINT","Food Take Out",3,43.6932614,-79.4618051,81
"10254114","UPPER CANADA CHEESE (RAWF)","Food Take Out",2,43.6350148,-79.4111826,100
"10254117","COOKING STAGE (RAWF)","Food Take Out",2,43.6350148,-79.4111826,100
"10254119","NEW WRAP CITY & COFFEE (RAWF)","Food Take Out",2,43.6350148,-79.4111826,100
"10254131","CENTRAL MARKET","Food Store (Convenience / Variety)",1,43.6372822,-79.4362721,100
"10254148","KBA CASH & CARRY","Food Depot",1,43.6228876,-79.55962,100
"10254238","SUBWAY","Restaurant",2,43.6879867,-79.4125666,100
"10254243","TROPICAL THAI CUISINE","Restaurant",3,43.6806324,-79.2858359,100
"10254383","BLOOR SUPERFRESH","Supermarket",2,43.666088,-79.406631,100
"10254431","LAVINGTON MARKET & VARIETY","Food Store (Convenience / Variety)",1,43.6902811,-79.5616876,100
"10254468","SHOPPERS DRUG MART","Food Store (Convenience / Variety)",1,43.6379297,-79.3910464,100
"10254475","SARDINHA THE KING OF BBQ CHICKEN","Restaurant",3,43.6615685,-79.427937,100
"10254493","TIMOTHY'S WORLD COFFEE","Restaurant",2,43.7692924,-79.3886264,100
"10254518","MIDLAND CONVENIENCE","Food Store (Convenience / Variety)",1,43.7418908,-79.2611532,100
"10254551","PARK HYATT TORONTO ROOF TOP LOUNGE","Restaurant",2,43.6687449,-79.3941655,100
"10254557","KOREAN GRILL HOUSE","Restaurant",3,43.6583724,-79.3817312,100
"10254638","WINNERS BAR & GRILL","Restaurant",3,43.7477041,-79.2837716,100
"10254647","THE GREAT CANADIAN BAGEL","Food Take Out",2,43.7060893,-79.3983431,62
"10254690","MAIN DRUG MART","Food Store (Convenience / Variety)",1,43.6600737,-79.4351925,100
"10254710","SUBWAY SANDWICHES AND SALADS","Restaurant",2,43.7862741,-79.4735438,100
"10254750","THE BUTTERY","Restaurant",3,43.6654927,-79.3971659,100
"10254752","RIMROCK CAFE","Food Take Out",2,43.7572174,-79.4658089,100
"10254768","FEDNOR-CJ PIES N MORE (RAWF)","Food Take Out",2,43.6350148,-79.4111826,100
"10254873","GODIVA CHOCOLATIER","Food Store (Convenience / Variety)",1,43.7743445,-79.2535219,100
"10254909","WIKKI HUT","Food Court Vendor",3,43.6544272,-79.3903373,100
"10254937","SELECT SANDWICH","Restaurant",2,43.7723647,-79.3360872,100
"10254949","TADMORE VARIETY","Food Store (Convenience / Variety)",1,43.7671821,-79.5155518,100
"10255019","U OF T MEDICAL SCIENCE","Secondary School Food Services",3,43.661309,-79.3941452,97
"10255030","OCEAN GRILL RESTAURANT","Restaurant",3,43.6982675,-79.451488,86
"10255077","SUBWAY","Food Take Out",2,43.7368395,-79.4366806,100
"10255119","IL POOM HYANG","Food Processing Plant",3,43.6912359,-79.470502,100
"10255143","BUDA CAFE RESTAURANT","Restaurant",1,43.7755132,-79.414555,100
"10255203","DOLLARAMA","Food Store (Convenience / Variety)",1,43.793389,-79.2409762,100
"10255263","GREEN EGGPLANT","Restaurant",3,43.6697744,-79.3016667,100
"10255433","TIM HORTONS","Food Take Out",2,43.7457311,-79.4071057,100
"10255449","ISLAND GRILL","Restaurant",3,43.6608944,-79.3577872,100
"10255453","COBS BREAD","Bakery",2,43.654909,-79.4003529,77
"10255486","THE FRIENDLY BUTCHER","Butcher Shop",3,43.7294064,-79.4030938,80
"10255496","HOLLYWOOD CONVENIENCE","Food Store (Convenience / Variety)",1,43.7679788,-79.4013271,100
"10255663","BENTO NOUVEAU","Food Take Out",3,43.6549333,-79.4196153,100
"10255778","LUCKY'S DISCOUNT VARIETY","Food Store (Convenience / Variety)",1,43.6604862,-79.4330598,100
"10255815","TIM HORTONS","Food Take Out",1,43.661309,-79.3941452,100
"10255980","OAK PARK DELI","Food Take Out",2,43.6938557,-79.3101808,100
"10255993","M. & E. VARIETY","Food Store (Convenience / Variety)",1,43.6562946,-79.4086666,60
"10256032","LOBLAWS SUPERSTORE (#2809)","Supermarket",3,43.7757181,-79.2632035,100
"10256081","FRIENDLY MAGNOLIA","Supermarket",3,43.6556684,-79.4117467,85
"10256141","TIM HORTON'S","Food Take Out",2,43.7228931,-79.5091072,100
"10256286","HIGH PARK SPICY HOUSE","Restaurant",3,43.6656059,-79.4700514,100
"10256298","BULK BARN","Food Store (Convenience / Variety)",1,43.7854456,-79.4740113,100
"10256354","MCDONALD'S","Restaurant",2,43.6531145,-79.3755805,100
